stop_id,stop_name,stop_lat,stop_lon,wheelchair_boarding,stop_code
180053,North Nechako Rd at Arend Dr,53.94247,-122.79215,0,180053
105417,North Nechako at Churchill,53.94598,-122.79543,0,105417
105017,UNBC Exchange Bay A,53.89128,-122.81364,0,105017
105060,Tyner at University Heights,53.87196,-122.80204,0,105060
105007,Domano at McGill,53.86899,-122.77786,0,105007
105058,Tyner at Baker,53.87,-122.78597,0,105058
105006,Domano at Moriarty,53.86819,-122.77445,0,105006
105379,Domano at 6430 Blk CHSS,53.86221,-122.7665,0,105379
105374,Southridge at St Anne,53.85769,-122.77965,0,105374
105373,Southridge at St Frances,53.86049,-122.78301,0,105373
105375,St Lawrence at Southridge,53.85562,-122.77794,0,105375
105377,St Lawrence at 7190 block,53.85851,-122.76876,0,105377
105376,St Lawrence at St Patrick,53.85566,-122.77339,0,105376
105378,Domano at Bernard,53.86023,-122.76648,0,105378
180002,Tyner at Gannett,53.86967,-122.78501,0,180002
105059,Tyner at University Heights,53.87201,-122.80193,0,105059
105013,Spruceland Exchange Bay B,53.91828,-122.78228,0,105013
105076,Ahbau at 8th Ave,53.9174,-122.78455,0,105076
105010,Pine Centre Exchange Bay B,53.89863,-122.77985,0,105010
105449,Westwood at Fairview,53.89402,-122.77962,0,105449
105005,Nicholson at 15th Ave,53.90983,-122.78708,0,105005
105038,Nicholson at 18th Ave,53.90772,-122.78602,0,105038
105435,Baker at Wheeler,53.87076,-122.78507,0,105435
105281,Bear at Aldeen,53.85919,-122.80681,0,105281
105820,Bear at Kimball,53.85809,-122.81483,0,105820
105429, (-DCOM-)Hart Highway at Hoffercamp,53.9389,-122.76047,0,105429
105280,Westwood at Andres,53.88619,-122.77965,0,105280
105444,Range at Romanin,53.8846,-122.78157,0,105444
105451,Westwood at Cherry,53.88944,-122.77961,0,105451
105450,Westwood at Fern,53.89169,-122.77965,0,105450
105282,Massey at Griffiths- Stadium,53.90432,-122.77376,0,105282
105022,College Rd at CNC,53.90528,-122.78584,0,105022
105427,2800 Block Hart Highway Frontage,53.95064,-122.76329,0,105427
105430,Hart Highway Frontage at McIntosh,53.94598,-122.76297,0,105430
105425,Hart Highway at Kenworth,53.96047,-122.76777,0,105425
105426,Hart Highway Frontage at Perrin,53.95673,-122.76596,0,105426
105431,Hart Highway at Northwood Pulpmill,53.94388,-122.76199,0,105431
105522,Hart at Lehman,53.98068,-122.77561,0,105522
105523,Hart at Monteray,53.97817,-122.77158,0,105523
105203,Hart at Austin Rd W,53.98912,-122.78647,0,105203
105521,Hart at Birchwood,53.98753,-122.78279,0,105521
105428,3100 Block Hart Highway Frontage,53.95258,-122.76447,0,105428
105437,Foster Rd at Foster Place,53.87279,-122.78324,0,105437
105014,Spruceland Exchange Bay D,53.91768,-122.78289,0,105014
105101,Ahbau at 5th Ave,53.9199,-122.78416,0,105101
105011,Pine Centre Exchange Bay A,53.89848,-122.77958,0,105011
105285,Massey at Del Laverdure - Stadium,53.90381,-122.77347,0,105285
105021,College Rd at CNC,53.90512,-122.78572,0,105021
105023,Nicholson at 18th Ave,53.90773,-122.78589,0,105023
180051,22nd Avenue at Nicholson,53.90368,-122.78492,0,180051
105434,Baker Rd at Wheeler,53.87042,-122.78501,0,105434
105184,Cook 5740 block,53.98102,-122.77898,0,105184
105183,Croft at Hepting,53.97865,-122.78204,0,105183
105436,Foster Rd at Foster Pl,53.87285,-122.78282,0,105436
105438,Davis at Foster,53.87461,-122.78097,0,105438
105439,Davis at Prudente,53.87581,-122.78298,0,105439
105442,Range at Romanin,53.88455,-122.78354,0,105442
105283,Griffiths 2870 block,53.90436,-122.77886,0,105283
105286,Westwood 3320 block,53.88678,-122.77946,0,105286
105445,Westwood at Ferry,53.88858,-122.77946,0,105445
105488,Westwood at Tweedsmuir,53.89522,-122.77956,0,105488
105447,Westwood at Fairview,53.89321,-122.77947,0,105447
105180,Hart Highway at Bellamy,53.95305,-122.76411,0,105180
105188,Hart Highway at Kenworth,53.96086,-122.76758,0,105188
105181,Croft at Winslow,53.98132,-122.78888,0,105181
105173, Glengarry at Killarney,53.98124,-122.79254,0,105173
105812,Croft at Glade,53.98058,-122.78475,0,105812
105454,Austin Rd W at Boschman,53.98879,-122.79942,0,105454
105008,Hart Exchange Bay A,53.98888,-122.78909,0,105008
105400,Kelly S at Vellencher,53.98541,-122.80105,0,105400
105401,Kelly S at Austin,53.98748,-122.80103,0,105401
105186,Hart Highway at Collins,53.97156,-122.76785,0,105186
105185,Hart at Monteray,53.97947,-122.77315,0,105185
105394,Highland at Montgomery,53.98332,-122.79929,0,105394
105187,Hart Highway at Noranda,53.96514,-122.76721,0,105187
105512,Hart Highway at Northwood Pulpmill,53.94436,-122.76148,0,105512
105511,Hart Highway at Hoffercamp,53.94112,-122.76068,0,105511
105446,Westwood at Laurel,53.89053,-122.77946,0,105446
105399,Highland at Teresa,53.98264,-122.79674,0,105399
105249,Simon Fraser at Caledonia,53.86586,-122.7644,0,105249
105250,Simon Fraser at Rideau,53.86819,-122.7647,0,105250
105389,Bunce at Park,53.8498,-122.82358,0,105389
105388,Bunce at Great Bear,53.84697,-122.82436,0,105388
105028,17th Ave at Yew,53.90727,-122.76571,0,105028
105212,Winnipeg at 13th Ave,53.91196,-122.76032,0,105212
180032,9th at Edmonton,53.91524,-122.75969,0,180032
105295,Henrey at Elk,53.85229,-122.81422,0,105295
105393,Thompson at Greg,53.85149,-122.81506,0,105393
105291,Tony at Highway 16,53.8583,-122.80965,0,105291
105290,Bear at Westgate,53.86046,-122.80275,0,105290
105385,Perdue at Lattman,53.83766,-122.82166,0,105385
105384,Purdue at Hilltop,53.83772,-122.81569,0,105384
105255,McGill at Eton,53.87207,-122.77735,0,105255
105256,McGill at Monahan,53.87023,-122.77615,0,105256
105252,Simon Fraser at Cowart,53.872,-122.76551,0,105252
105253,Eton at Simon Fraser,53.87353,-122.76903,0,105253
105251,Simon Fraser at Brock,53.87065,-122.76438,0,105251
105254,Eton at Cambridge,53.87217,-122.77304,0,105254
105260,Bear at Westgate,53.86079,-122.80117,0,105260
105019,Westgate Exchange Bay A,53.8651,-122.78607,0,105019
800033,Westgate Exchange,53.86506,-122.78628,0,800033
105381,Haldi at Sabrina,53.83203,-122.82419,0,105381
105380,Haldi at Southwell,53.83864,-122.83064,0,105380
105383,Hilltop at Purdue,53.83473,-122.81522,0,105383
105382,Hilltop at Leslie,53.83078,-122.81518,0,105382
105392,Thompson at Park,53.84863,-122.81449,0,105392
105386,Bunce at Purdue,53.83814,-122.82442,0,105386
105387,Bunce at Trailer Village,53.84254,-122.82439,0,105387
105292,Helene at Aldeen,53.856,-122.80675,0,105292
105293,Aldeen at Helene,53.8546,-122.80655,0,105293
105390,Park at Dow,53.84905,-122.81731,0,105390
105294,Henrey at Eugene,53.85227,-122.80842,0,105294
105288,Bear at Eugene,53.85899,-122.8079,0,105288
105261,Bear at Aldeen,53.85911,-122.80677,0,105261
105289,Bear 3740 block,53.85992,-122.8037,0,105289
105257,Dakelh-Ti at Domano,53.86819,-122.77689,0,105257
105258,Dakelh-Ti 5940 block,53.8665,-122.78034,0,105258
105411,Winnipeg at Yew,53.90726,-122.76605,0,105411
105114,Dakelh-Ti 5940 block,53.86644,-122.78034,0,105114
105259,Marleau at Lalonde,53.86289,-122.78887,0,105259
105016,Spruceland Exchange Bay C,53.91791,-122.78229,0,105016
105001,Downtown Exchange,53.9137,-122.74808,0,105001
105161,3rd Ave at Cross,53.91868,-122.75177,0,105161
105121,5th Ave at Douglas,53.92076,-122.77125,0,105121
105441,Ospika at Range,53.88407,-122.78469,0,105441
105424,Davis at Baker,53.87631,-122.78413,0,105424
105525,Hart Highway at Noranda,53.96485,-122.76769,0,105525
105000,Downtown Exchange Bay C,53.91367,-122.7474,0,105000
105128,Victoria at 7th Ave,53.91453,-122.75203,0,105128
105127,Victoria at 9th Ave,53.91299,-122.75322,0,105127
105126,Victoria at 11th Ave,53.91142,-122.75454,0,105126
105125,Victoria at 17th Ave,53.90807,-122.75536,0,105125
105124,Victoria at 20th Ave,53.90479,-122.75526,0,105124
105119,Victoria at Strathcona,53.90178,-122.75522,0,105119
105164,Victoria at Diefenbaker,53.89746,-122.75529,0,105164
105163,Pearson at Upland,53.89855,-122.7602,0,105163
105342,Upland at St Laurent,53.89612,-122.76072,0,105342
105341,Upland at Lonsdale,53.89351,-122.76071,0,105341
105242,Upland at McKenzie,53.89233,-122.76073,0,105242
105245,Upland at Rebman,53.88968,-122.7608,0,105245
105241,Ferry at Upland,53.88885,-122.76132,0,105241
105244,Lansdowne at McInnis,53.88798,-122.76249,0,105244
105240,Landsdowne Turn Around,53.88403,-122.7653,0,105240
105239,Lansdowne at Runnalls,53.88765,-122.76223,0,105239
105238,Ferry at Recplace,53.8888,-122.7714,0,105238
105237,Ferry at Westwood,53.88834,-122.78022,0,105237
105236,Ospika at Denise,53.88862,-122.78699,0,105236
105235,Ospika at Pinewood,53.89243,-122.78878,0,105235
105234,Ospika at Dufferin,53.89619,-122.78876,0,105234
105233,Massey at Ospika,53.89933,-122.79,0,105233
105232,Massey at Vanier,53.89945,-122.7862,0,105232
105068,Massey at Westwood,53.89972,-122.78326,0,105068
105330,Massey at Opie,53.89969,-122.78624,0,105330
105331,Massey at Nicholson,53.89969,-122.78954,0,105331
105332,Ospika at Massey,53.89949,-122.79171,0,105332
105333,Ospika at Campbell,53.90187,-122.79566,0,105333
105334,Ospika 2100 block,53.90471,-122.79726,0,105334
105335,18th Ave at Ospika,53.90739,-122.79843,0,105335
105336,18th Ave at George Paul,53.9074,-122.80337,0,105336
105064,15th Ave at Foothills,53.91021,-122.81073,0,105064
105322,Tabor at Genevieve,53.91109,-122.80683,0,105322
105338, Tabor at Davie,53.91521,-122.80687,0,105338
105339,Tabor at Granite,53.91708,-122.80687,0,105339
105340,Tabor at Quentin,53.9195,-122.80734,0,105340
105061,5th Ave at Tabor,53.92052,-122.80582,0,105061
105062,5th Ave at Voyageur,53.92054,-122.80171,0,105062
105081,5th Ave at Kerry,53.92054,-122.79871,0,105081
105082,5th Ave at Ruggles,53.92049,-122.79274,0,105082
105246,5th Ave at Patterson,53.92049,-122.79045,0,105246
105247,5th Ave at Nicholson,53.9205,-122.78669,0,105247
105145,5th Ave at Johnson,53.92049,-122.77924,0,105145
105144,5th Ave at Harper,53.9205,-122.77628,0,105144
105138,5th Ave at Freeman,53.92052,-122.77327,0,105138
105137,5th Ave at Douglas,53.92051,-122.77025,0,105137
105133,5th Ave at Burden,53.92052,-122.76747,0,105133
105132,6th Ave at Wainwright,53.91957,-122.7656,0,105132
105131,5th Ave at Wainwright,53.92056,-122.7647,0,105131
105130,5th Ave at Melville,53.92051,-122.76154,0,105130
105129,4th Ave at Edmonton,53.91895,-122.75642,0,105129
105143,4th Ave at Prince Rupert,53.91797,-122.75301,0,105143
105209,4th Ave at Vancouver,53.91748,-122.75125,0,105209
105208,4th Ave at Brunswick,53.91668,-122.74849,0,105208
105094,Dominion at 6th Ave,53.91441,-122.74634,0,105094
105002,Downtown Exchange Bay A,53.91323,-122.74727,0,105002
180035,Patricia Blvd at 10th Ave,53.91135,-122.75107,0,180035
105091,15th Ave at Victoria,53.91032,-122.75651,0,105091
105090,15th Ave at Spruce,53.90985,-122.75878,0,105090
105089,UHNBC Hospital,53.91046,-122.76571,0,105089
105088,15th Ave at Carney,53.91046,-122.76973,0,105088
105087,15th Ave at Ewert,53.91048,-122.7727,0,105087
105086,15th Ave at Gillett,53.91046,-122.77562,0,105086
105085,15th Ave at Johnson,53.9105,-122.77921,0,105085
105084,15th Ave at Central St W,53.9105,-122.78318,0,105084
105003,Nicholson Exchange,53.91047,-122.78704,0,105003
105083,15th Ave at Ingenika,53.91049,-122.79133,0,105083
105080,15th Ave at Nation,53.91049,-122.79552,0,105080
105079,15th Ave at Drummond,53.9105,-122.80109,0,105079
105078,15th Ave at Jarvis,53.91049,-122.80402,0,105078
105077,15th Ave at Tabor,53.91051,-122.80861,0,105077
105113,University at Foothills,53.91049,-122.81246,0,105113
180001,15th Ave at Jarvis,53.91019,-122.80374,0,180001
105066,15th Ave at Nation,53.91016,-122.7963,0,105066
105026,Nicholson Exchange Bay A,53.91015,-122.7863,0,105026
105069,15th Ave at Central St E,53.91023,-122.78065,0,105069
105071,15th Ave at Irwin,53.91022,-122.7779,0,105071
105070,15th Ave at Gillett,53.91024,-122.77482,0,105070
105072,15th Ave at Ewert,53.91027,-122.7719,0,105072
105073,15th Ave at Carney,53.91024,-122.76887,0,105073
105075,15th at Alward - UHNBC Hospital,53.91023,-122.76621,0,105075
105074,15th Ave at Spruce,53.90984,-122.75747,0,105074
105136,Victoria at 11th Ave,53.91167,-122.75392,0,105136
105135,Victoria at 9th Ave,53.91342,-122.75261,0,105135
105134,Victoria at 6th Ave,53.91538,-122.75104,0,105134
105100,Victoria at 5th Ave,53.91647,-122.75012,0,105100
105098,Victoria at 3rd Ave,53.91764,-122.74917,0,105098
105097,1st Ave at Quebec,53.91876,-122.74381,0,105097
105096,Dominion at 2nd Ave,53.9176,-122.74383,0,105096
105095,Dominion at 4th Ave,53.91595,-122.74509,0,105095
105372,Domano at St Lawrence,53.85816,-122.76738,0,105372
105371,Domano at Gladstone,53.85419,-122.77054,0,105371
105370,Domano at Rochester,53.85254,-122.77087,0,105370
105369,Domano at 8100 Blk,53.85,-122.77058,0,105369
105368,Malaspina at Rochester,53.84888,-122.76874,0,105368
105049,Malaspina at Princeton,53.8491,-122.7658,0,105049
105050,Malaspina at Loyola,53.84967,-122.76207,0,105050
105051,Loyola at Rochester,53.85177,-122.76208,0,105051
105052,Gladstone at Loyola,53.85479,-122.7598,0,105052
105053,Gladstone at Jean De Brebeuf,53.85539,-122.75773,0,105053
105054,Gladstone at Hartford,53.8581,-122.76002,0,105054
105056,Simon Fraser at Fairmont,53.86051,-122.76177,0,105056
105065,Simon Fraser at Delhi,53.86287,-122.76209,0,105065
105067,Simon Fraser at Acadia,53.86459,-122.76236,0,105067
105037,Queensway at Connaught,53.91115,-122.74241,0,105037
105032,15th Ave at Ingledew,53.91043,-122.7405,0,105032
105036,Gorse at 20th Ave,53.90622,-122.73801,0,105036
105403,20th Ave at Ingledew,53.90551,-122.7414,0,105403
105274,17th Ave at Queensway,53.9085,-122.74293,0,105274
105273,17th Ave at Larch,53.9085,-122.7472,0,105273
180030,Oak St SB at 20th,53.90599,-122.75103,0,180030
105405,20th Ave at Norwood,53.90538,-122.74894,0,105405
105271,20th Ave at Cuddie,53.90537,-122.74419,0,105271
105408,Queensway at 20th Ave,53.90486,-122.7424,0,105408
105409,Queensway at Hamilton,53.89821,-122.74147,0,105409
105046,Ferry at Clapperton,53.88917,-122.75488,0,105046
105045,Ferry at Spruce,53.88883,-122.75875,0,105045
105044,Range at Wiebe,53.88458,-122.77124,0,105044
105048,Wiebe 3880 block,53.88175,-122.77352,0,105048
105287,Westwood at Merritt,53.88323,-122.77947,0,105287
105004,Nicholson Exchange Bay B,53.91014,-122.78598,0,105004
105027,Carney at Ellison,53.90833,-122.76937,0,105027
105030,17th Ave at Upland,53.90836,-122.7618,0,105030
105029,17th Ave at Tamarack,53.90837,-122.75898,0,105029
180003,Quebec at 5th,53.91571,-122.74689,0,180003
105031,Quebec at 2nd Ave,53.91754,-122.74544,0,105031
105264,Spruce at 15th Ave,53.90917,-122.75806,0,105264
105263,17th Ave at Upland,53.90847,-122.76188,0,105263
105410,Carney at Ellison,53.90821,-122.76918,0,105410
105231,Ospika at Massey,53.89811,-122.78998,0,105231
105243,Ospika at Forrest,53.89535,-122.78916,0,105243
105230,Ospika at Gould,53.89376,-122.78915,0,105230
105229,Ospika at Christopher,53.89157,-122.78918,0,105229
105228,Ospika at James,53.88964,-122.78781,0,105228
105227,Ferry at Melody,53.88812,-122.78486,0,105227
105226,Ferry at Westwood,53.88811,-122.78032,0,105226
105224,Ferry at Lansdowne,53.88867,-122.76197,0,105224
105279,Ferry at Spruce,53.88869,-122.75713,0,105279
105276,Queensway at Houston,53.89416,-122.74335,0,105276
105277,Queensway at La Salle,53.89723,-122.74122,0,105277
105278,Queensway at Quadrant,53.90003,-122.74126,0,105278
105043,Queensway at Royal,53.90138,-122.74146,0,105043
105275,Queensway at 20th Ave,53.90484,-122.74208,0,105275
105270,20th Ave at Gorse,53.90541,-122.73825,0,105270
105269,Gorse at 20th Ave,53.9066,-122.73791,0,105269
105033,Gorse at 15th,53.90993,-122.73791,0,105033
105266,15th Ave at Ingledew,53.91052,-122.74048,0,105266
105265,Queensway at 15th Ave,53.91091,-122.74222,0,105265
180023,Dominion at 4th Ave,53.91556,-122.74512,0,180023
180009,2nd Ave at Dominion,53.91761,-122.74441,0,180009
180011,2nd Ave at Brunswick,53.9184,-122.74723,0,180011
180010,2nd Ave at Victoria,53.91883,-122.7487,0,180010
105142,3rd Ave at Winnipeg,53.91932,-122.75402,0,105142
105141,5th Ave at Melville,53.92076,-122.76205,0,105141
105140,5th Ave at Wainwright,53.92077,-122.7655,0,105140
105122,5th Ave at Burden,53.92075,-122.7684,0,105122
105182,5th Ave at Freeman,53.92075,-122.77425,0,105182
180005,5th Ave at Irwin,53.92073,-122.77873,0,180005
105102,5th Ave at Nicholson,53.92071,-122.78699,0,105102
105103,5th Ave at Patterson,53.92071,-122.78987,0,105103
105104,5th Ave at Quinn,53.92071,-122.79225,0,105104
105105,5th Ave at Ospika,53.92072,-122.79511,0,105105
105106,5th Ave at Brigade,53.92069,-122.80018,0,105106
105107,5th Ave at Voyageur,53.92069,-122.80332,0,105107
105120,Tabor at Jackpine,53.91925,-122.8078,0,105120
180004,Tabor at Granite,53.91711,-122.80727,0,180004
105362,Tabor at Chingee,53.91342,-122.8073,0,105362
105361,Tabor at Antler,53.91127,-122.80723,0,105361
105191,Foothills at Glen Shee,53.90963,-122.81179,0,105191
180013,18th Ave at George Paul,53.90727,-122.80349,0,180013
180012,Ospika at 18th Ave,53.90663,-122.79774,0,180012
105160,Ospika at 2100 Blk- CN Centre,53.90458,-122.7977,0,105160
105024,Ospika at Campbell,53.90165,-122.79595,0,105024
105025,Ospika at Docherty,53.90047,-122.79397,0,105025
105225,Ferry at Recplace,53.88864,-122.77055,0,105225
105223,Upland at Rebman,53.88968,-122.76059,0,105223
105222,Upland at Emmet,53.89208,-122.76053,0,105222
105221,Upland at Abbott,53.89647,-122.7605,0,105221
180017,Pearson at Upland,53.89841,-122.76017,0,180017
180016,Victoria at Pearson,53.89622,-122.75508,0,180016
180015,Victoria at McCullagh,53.89975,-122.75505,0,180015
180006,Victoria at Milburn,53.90126,-122.75501,0,180006
105162,Victoria at Porter,53.90422,-122.75501,0,105162
180008,Victoria at 20th Ave,53.90597,-122.75502,0,180008
180007,Victoria at 17th Ave,53.90883,-122.75497,0,180007
105193,Austin Rd E 3400 block,53.98952,-122.78478,0,105193
105192,Austin Rd E at Driftwood,53.9895,-122.78147,0,105192
180014,Dawson at Austin Rd E,53.99001,-122.77668,0,180014
105190,Eden at Langer,53.99347,-122.77834,0,105190
105197,Eden at Adam,53.99351,-122.781,0,105197
105198,Eden at Glenview,53.99342,-122.78422,0,105198
105199,Eden at Dagg,53.99257,-122.78782,0,105199
105202,Weisbrod at Dagg,53.99623,-122.79587,0,105202
105518,Hart Highway at Nordic,53.99934,-122.80043,0,105518
105517,Hart Highway at Brons,54.00148,-122.80068,0,105517
105519,Hart Highway at Chestnut,54.00433,-122.80065,0,105519
105520,Hart Highway at Estavilla,54.00706,-122.80062,0,105520
180037,Kelly at Killy,54.01052,-122.80125,0,180037
105178,Kelly at Handlen,53.99564,-122.80129,0,105178
105500,Kelly at Heather,53.99333,-122.80129,0,105500
105501,Kelly Rd S at Richet,53.99192,-122.80127,0,105501
105502,Kelly Rd S at Austin Rd W,53.98956,-122.80125,0,105502
105503,Kelly Rd S 6440 block,53.98749,-122.80126,0,105503
105507,Highland at Montgomery,53.98321,-122.79937,0,105507
105509,Highland at Nixon,53.97944,-122.79569,0,105509
105510,Highland at Wallace,53.97841,-122.79806,0,105510
105419,N. Nechako Caledonia Mobile Home Park,53.96101,-122.82132,0,105419
105420,North Nechako at Foothills,53.95768,-122.81273,0,105420
105421,North Nechako at Fairburn,53.95688,-122.80892,0,105421
105422,North Nechako at Slate,53.95453,-122.80404,0,105422
105395,North Nechako at Craig,53.94628,-122.796,0,105395
105396,North Nechako at Rustad,53.93943,-122.78956,0,105396
105139,North Nechako at Aspen,53.93475,-122.78723,0,105139
105397,North Nechako at Highway 97,53.93113,-122.78224,0,105397
105413,North Nechako at Aspen,53.93443,-122.78688,0,105413
105414,North Nechako at Rustad,53.93985,-122.78975,0,105414
105418,North Nechako at North Meadow,53.95467,-122.80397,0,105418
105415,North Nechako at Fairburn,53.957,-122.80895,0,105415
105416,North Nechako at Foothills,53.9578,-122.81257,0,105416
105151,Nixon at Berwick,53.97513,-122.79661,0,105151
105176,Ridgeview at McKenney,53.97349,-122.79568,0,105176
105157,Wildwood at Ridgeview,53.97168,-122.79259,0,105157
105174,Wildwood at Carlisle,53.97279,-122.79062,0,105174
105170,Wildwood at Sussex,53.97514,-122.78971,0,105170
105166,Killarney at Wildwood,53.977,-122.79128,0,105166
105171,Killarney at Carleton,53.97983,-122.79232,0,105171
105367,Rainbow at Ahbau,53.91614,-122.78595,0,105367
105366,Rainbow at Liard,53.91625,-122.78979,0,105366
105365,Rainbow at Ospika,53.91634,-122.79427,0,105365
105364,Rainbow at Reid,53.91722,-122.79931,0,105364
105363,Kerry at Inez,53.91544,-122.80262,0,105363
105115,Foothills at 15th Ave,53.91091,-122.81131,0,105115
105116,Foothills at Cascade,53.91325,-122.81341,0,105116
105117,Foothills at Ochakwin,53.91451,-122.8156,0,105117
105118,Pilot at Ochakwin,53.91662,-122.81487,0,105118
105042,Pilot at Eaglenest,53.9177,-122.81169,0,105042
105041,Pilot at 5th Ave,53.92029,-122.81074,0,105041
105123,5th Ave at Tabor,53.92052,-122.80895,0,105123
105359,Tabor at 5th Ave,53.92124,-122.8074,0,105359
105358,Hill at Tabor,53.92274,-122.80734,0,105358
105357,Hill at Bic,53.92293,-122.81184,0,105357
105356,Killoren at Mullett,53.92365,-122.81576,0,105356
105355,Killoren at 358 Block,53.92513,-122.81561,0,105355
105360,Foothills at Killoren,53.92526,-122.81967,0,105360
105354,Foothills at Freimuller,53.9278,-122.82016,0,105354
105353,1st Ave at Van Somer,53.93111,-122.81788,0,105353
105352,1st Ave at Zimmaro,53.93073,-122.81465,0,105352
105351,1st Ave at Freimuller,53.92955,-122.81202,0,105351
105350,1st Ave at Anderson,53.92792,-122.80926,0,105350
105349,1st Ave at Boyd,53.9272,-122.80576,0,105349
105348,N Tabor at McArthur,53.92801,-122.80311,0,105348
105347,N Tabor at McKinley,53.92915,-122.80349,0,105347
105346,N Tabor at McPherson,53.93097,-122.80392,0,105346
105345,N Tabor at Lofting,53.93259,-122.8038,0,105345
105344,N Tabor at McDermid,53.93417,-122.80387,0,105344
105343,N Tabor at Stirling,53.93562,-122.80117,0,105343
105296,N Ospika at Blair,53.93553,-122.79848,0,105296
105297,N Ospika at McIntyre,53.92882,-122.79427,0,105297
105298,N Ospika at McRae,53.92699,-122.79433,0,105298
105299,Ospika at Nugget,53.9232,-122.79428,0,105299
105300,Ospika at Pioneer,53.92157,-122.79431,0,105300
105301,Ospika at Pioneer,53.92174,-122.79403,0,105301
105302,Ospika at Nugget,53.92319,-122.79394,0,105302
105303,N Ospika at McLeod,53.92576,-122.79394,0,105303
105304,N Ospika at McRae,53.92714,-122.79396,0,105304
105305,N Ospika at McDermid,53.93032,-122.79396,0,105305
105306,N Ospika at N Tabor,53.93582,-122.79841,0,105306
105307,N Tabor at Stirling,53.93585,-122.80116,0,105307
105308,N Tabor at McDermid,53.93417,-122.80415,0,105308
180036,North Tabor at Ewen,53.93261,-122.8042,0,180036
105309,N Tabor at Corless,53.93084,-122.8041,0,105309
105310,N Tabor at Baxter,53.92931,-122.80398,0,105310
105312,N Tabor at Allen,53.92826,-122.80354,0,105312
105311,1st Ave at Boyd,53.92732,-122.80563,0,105311
105313,1st Ave at Anderson,53.92802,-122.80919,0,105313
105314,1st Ave at Freimuller,53.92966,-122.81193,0,105314
105315,1st Ave at Zimmaro,53.93107,-122.81509,0,105315
105316,1st Ave at Van Somer,53.93123,-122.81827,0,105316
105317,Killoren at Foothills,53.92498,-122.8184,0,105317
105318,Killoren at Mullett,53.92374,-122.81584,0,105318
105319,Hill at Anderson,53.9228,-122.81019,0,105319
105320,Hill at Graham,53.9228,-122.80852,0,105320
105321,Tabor at Hill,53.9222,-122.80758,0,105321
105108,5th Ave at Tabor,53.92074,-122.80839,0,105108
105109,Pilot at 5th Ave,53.92031,-122.81094,0,105109
105110,Pilot at Selwyn,53.91677,-122.81321,0,105110
105111,Ochakwin at Robson,53.91605,-122.81565,0,105111
105112,Foothills at Cascade,53.91255,-122.81296,0,105112
105323,Davie at Tabor,53.9148,-122.80649,0,105323
105324,Kerry at Inez,53.91613,-122.80216,0,105324
105325,Kerry at Lacoma,53.91741,-122.80129,0,105325
105326,Rainbow at Reid,53.91696,-122.79887,0,105326
105327,Rainbow at Ospika,53.91631,-122.79521,0,105327
105328,Rainbow at Liard,53.91608,-122.78962,0,105328
105329,Rainbow at Union,53.91593,-122.78645,0,105329
105220,Ahbau at Rainbow,53.91646,-122.78503,0,105220
105219,10th Ave at Johnson,53.91536,-122.77928,0,105219
105218,10th Ave at Harper,53.91535,-122.77634,0,105218
105217,10th Ave at Freeman,53.91535,-122.7734,0,105217
105216,10th Ave at Douglas,53.91537,-122.77047,0,105216
105215,10th Ave at Alward,53.91533,-122.76552,0,105215
105214,Laurier at Lethbridge,53.91497,-122.76378,0,105214
105213,Lethbridge at UHNBC Hospital,53.91271,-122.7637,0,105213
105211,10th Ave at Vancouver,53.91328,-122.75662,0,105211
180022,Vancouver at 9th Ave,53.91397,-122.75437,0,180022
105207,Edmonton at 15th UHNBC Hospital,53.91092,-122.76332,0,105207
105206,Lethbridge at UHNBC Hospital,53.91279,-122.76353,0,105206
180026,Laurier at 10th Ave,53.91531,-122.76396,0,180026
180025,10th Ave at Alward,53.91546,-122.76551,0,180025
180024,10th Ave at Burden,53.91543,-122.76825,0,180024
180021,10th Ave at Douglas,53.91544,-122.77116,0,180021
180019,10th Ave at Freeman,53.91544,-122.77412,0,180019
180020,10th Ave at Harper,53.91542,-122.77732,0,180020
180018,10th Ave at Johnson,53.91543,-122.78011,0,180018
180052,Edmonton at Ross,53.91507,-122.76009,0,180052
105262,Bear at Kimball,53.85797,-122.81478,0,105262
105149,Highland at Berwick,53.97795,-122.79909,0,105149
105402,Highland at Wallace,53.97833,-122.79797,0,105402
105504,Vellencher at Tasa,53.98512,-122.80493,0,105504
105505,Stauble at Vellencher,53.98405,-122.80734,0,105505
105506,Stauble at Enns,53.98156,-122.80358,0,105506
105152,Carlisle Way at Canan,53.96886,-122.78726,0,105152
105175,Panorama at Sadlerat Panorama Place,53.96598,-122.78413,0,105175
105154,Panorama at Sadler,53.96352,-122.78636,0,105154
105172,Sadler at Ridgeview,53.96535,-122.78569,0,105172
105155,Ridgeview at Canan,53.96832,-122.78921,0,105155
105147,Kelly S at Richet,53.99192,-122.80105,0,105147
105177,Handlen at Kelly S,53.99625,-122.80308,0,105177
105169,Heather Park at Gray,53.99415,-122.80755,0,105169
105189,Winslow at Kim,53.98434,-122.78784,0,105189
105196,Winslow at Poplar,53.98459,-122.78553,0,105196
105195,Birchwood at Hazel,53.98707,-122.78429,0,105195
180033,(-DCOM-)Eden at Dagg,53.99244,-122.78773,0,180033
180045,Eden at Glenview,53.99338,-122.78335,0,180045
180046,Eden at Langer Crescent,53.99338,-122.78091,0,180046
180047,Eden at Dawson,53.99337,-122.77769,0,180047
180049,Austin at Driftwood,53.98967,-122.78227,0,180049
180050,Austin at Dagg,53.98966,-122.78489,0,180050
105204,Birchwood at Hazel,53.98733,-122.78426,0,105204
105205,Winslow at Poplar,53.9847,-122.78565,0,105205
180000,Winslow at Kim,53.98446,-122.78822,0,180000
105514,Croft at Winslow,53.98118,-122.78896,0,105514
105513,Croft at Glade,53.98045,-122.78483,0,105513
105515,Croft at Hepting,53.97852,-122.78145,0,105515
105516,Cook 5760 block,53.98092,-122.77895,0,105516
180044,22nd Avenue at Nicholson,53.90355,-122.78465,0,180044
105148,Berwick at Langley,53.97633,-122.79709,0,105148
180054,North Nechako Rd at Arend Dr,53.94224,-122.79224,0,180054
105412,North Nechako at Highway 97,53.93131,-122.78117,0,105412
105398,Highland at Glengarry,53.98139,-122.7954,0,105398
105524,Hart 5200 block,53.96987,-122.76811,0,105524
180027,Griffiths 2870 block,53.90432,-122.77878,0,180027
105200,Dagg at Eden,53.99392,-122.7912,0,105200
105201,Dagg 7110 block,53.99474,-122.79266,0,105201
105267,Southtbound Gorse at 15th,53.90905,-122.73812,0,105267
105047,Vance at Blakley,53.88103,-122.77723,0,105047
105039,La Salle at Queensway,53.89687,-122.74205,0,105039
105040,La Salle at Lillooet,53.89689,-122.74565,0,105040
105099,Moyie at Proppe,53.89375,-122.74757,0,105099
105159,Highland at Nixon,53.9798,-122.79519,0,105159
180048,Austin at Dallas,53.98971,-122.77738,0,180048
180055,Vancouver at 7th,53.91555,-122.75309,0,180055
180058,Ahbau at Babine,53.91483,-122.78505,0,180058
180057,Park Dr at 5742 Blk,53.85026,-122.82163,0,180057
180059,Ahbau at Fraser,53.9113,-122.78546,0,180059
180060,Highland at Poyner (SB),53.98113,-122.79535,0,180060
105194,Hart Hwy Frontage Rd at Birchwood,53.9878,-122.78424,0,105194
980000,Prince George Garage,53.88071,-122.74086,0,980000
105440, Ospika at Davis,53.87663,-122.78442,0,105440
105443,Range at Westwood,53.88455,-122.77998,0,105443
180061,15th Ave at Quinn,53.91018,-122.79279,0,180061
180062,Hart Hwy Frntg Rd W at 8200 Blk,54.00542,-122.80152,0,180062
180063,18th Avenue at Foothills Blvd,53.90761,-122.81087,0,180063
185025,Tom Drive at Hwy 16,54.32923,-125.88374,0,185025
185024,Decker Lake Trading Post,54.2919,-125.83246,0,185024
185016,Government at Gilgan,54.22898,-125.7635,0,185016
185017,Pioneer Way at Park St,54.22481,-125.76078,0,185017
185018,Hwy 35 at Lakeview Mall,54.22402,-125.75581,0,185018
185019,3rd Ave at Kerr,54.23002,-125.75052,0,185019
185020,5th Ave at Carroll,54.23176,-125.75188,0,185020
185021,Lk Babine Nation Band Off,54.23837,-125.75899,0,185021
185022,Centre St at 10th Ave,54.23592,-125.76015,0,185022
185015,Hwy 16 at Hwy 35,54.22473,-125.75304,0,185015
185014,Tintagel Rd at Rest Stop,54.20521,-125.60563,0,185014
185013,Endako Bar and Grill,54.08587,-125.0215,0,185013
185012,Slenyah Store,54.06121,-124.91135,0,185012
185010,Fraser Lake Mall,54.0553,-124.85025,0,185010
185008,McMillan at Chilako,54.05608,-124.84654,0,185008
185007,Nautley General Store,54.07955,-124.60168,0,185007
185006,Ft Fraser Community Hall,54.06146,-124.55198,0,185006
185001,Burrard Vanderhoof Co-op,54.01495,-124.0089,0,185001
185003,Burrard at Victoria Ave,54.0182,-124.00909,0,185003
185005,Hosp Rd at Health Care Ave,54.02893,-124.00929,0,185005
185002,Burrard at Victoria Ave,54.01953,-124.00928,0,185002
185040,Cluculz Lake Rest Area,53.90849,-123.58587,0,185040
185000,Beaverley Petro Canada,53.81656,-122.91301,0,185000
180029,Westgate Exchange Bay B,53.86496,-122.7861,0,180029
185009,McMillan at Chilako,54.05617,-124.84597,0,185009
185023,McPhail Frtg Rd at 8th,54.2345,-125.76658,0,185023
195006,4th Ave at King St,54.78016,-127.16682,0,195006
195005,8th at Columbia Dr,54.78524,-127.16386,0,195005
195003,Frontage Rd at Mall,54.78007,-127.16379,0,195003
195001,Frontage Rd at 16th Ave,54.77478,-127.15499,0,195001
185038,Hwy 16 at Post Office,54.69916,-127.05074,0,185038
185037,Hwy16 at Quick Rd W,54.64721,-126.90985,0,185037
185036,Hagman Cres at Park Ln,54.39291,-126.655,0,185036
185034,Mount View Dr at 13th,54.39686,-126.65643,0,185034
185032,Visitor Centre,54.39987,-126.65072,0,185032
185030,Leisure Facility,54.39632,-126.64812,0,185030
185029,Butler at 10th St,54.39977,-126.64371,0,185029
185027,Topley Landing,54.50594,-126.29712,0,185027
185026,Broman at Paddy Isaac,54.42146,-126.14063,0,185026
185028,Butler Ave at 10th St,54.39984,-126.64407,0,185028
185033,Mount View Rd at 13th,54.39647,-126.65613,0,185033
185035,Hagman Cres at Park Lane,54.39302,-126.65488,0,185035
185041,Kanata Ave at Hamblin,54.39431,-126.66458,0,185041
195000,Frontage Rd at 16th Ave,54.77483,-127.15494,0,195000
195002,Frontage Rd at Mall,54.78012,-127.16365,0,195002
195004,Hospital,54.78534,-127.16369,0,195004
185031,Houston Mall,54.39866,-126.6501,0,185031
185042,Kanata Ave at Hamblin,54.39424,-126.66474,0,185042
