stop_id,stop_name,stop_lat,stop_lon,wheelchair_boarding,stop_code
111486,Downtown Courtenay,49.6923,-124.99815,0,111486
111381,5th St at Simms Park,49.69285,-124.99395,0,111381
111296,Old Island Hwy at Puntledge,49.6952,-124.99225,0,111296
110270,Comox Valley Senior's Village,49.70285,-124.99403,0,110270
110526,Comox Valley Sports Ctr,49.71074,-125.00088,0,110526
111489,Anderton Ave at 3rd St,49.69289,-124.99661,0,111489
111300,Lerwick at Malahat,49.70583,-124.95992,0,111300
111301,Lerwick at Valley View,49.69902,-124.95641,0,111301
111373,2100 Blk Lerwick Rd,49.69607,-124.95512,0,111373
111302,Lerwick at Inverclyde,49.69437,-124.953,0,111302
111303,Guthrie at Aspen Grv Ctr,49.68911,-124.9463,0,111303
111304,Guthrie at Stadacona,49.68831,-124.93786,0,111304
111305,Anderton Rd at Guthrie Rd,49.68738,-124.93503,0,111305
111306,Anderton Rd at Bolt Ave,49.68401,-124.93521,0,111306
110532,Anderton at Robb,49.68129,-124.93543,0,110532
111347,Anderton at McKenzie,49.67908,-124.93563,0,111347
111348,Anderton Rd at Buena Vista Ave,49.6764,-124.93529,0,111348
111349,Comox at Ellis,49.67434,-124.9296,0,111349
110531,Comox Mall,49.67367,-124.92517,0,110531
111278,Driftwood Mall,49.67511,-124.98472,0,111278
111459,Cliffe at Mansfield,49.67854,-124.98389,0,111459
111337,Cliffe at 19th St,49.68204,-124.98671,0,111337
111397,5th St at Leighton Ave,49.68824,-125.00665,0,111397
111399,1st St at Urquhart Ave,49.68798,-125.01434,0,111399
111400,1st St at Embleton Cres,49.68628,-125.0175,0,111400
111401,1st St at Mitchell Pl,49.68412,-125.02149,0,111401
111457,Arden at 1st St,49.68163,-125.02488,0,111457
111464,2200 Blk Embleton Cres,49.68173,-125.02131,0,111464
111402,Embleton at Rod and Gun,49.68339,-125.0181,0,111402
111465,Embleton at Osprey,49.68497,-125.01683,0,111465
111491,1st St at Embleton Cres,49.6862,-125.01733,0,111491
111404,Woods at 2nd St,49.68625,-125.01395,0,111404
111405,Woods at Martin,49.68421,-125.01108,0,111405
134003,5th St at Pidcock Ave,49.68658,-125.00837,0,134003
111432,5th St at Kilpatrick Ave,49.68849,-125.00574,0,111432
111286,Fitzgerald at 5th St,49.69026,-125.00179,0,111286
110537,Balmoral at Anderton Park,49.67432,-124.92246,0,110537
110538,Balmoral at Pritchard,49.67403,-124.91752,0,110538
111352,Balmoral at Donovan,49.67398,-124.91237,0,111352
111353,Torrence at Albatross,49.67556,-124.90882,0,111353
110552,Torrence at Casey,49.67907,-124.90871,0,110552
111355,Torrence at Noel,49.68233,-124.90857,0,111355
111356,Torrence at Hillside,49.68361,-124.90975,0,111356
111357,Torrence at Ridgemount,49.68598,-124.90972,0,111357
111358,Guthrie at Skeena,49.68795,-124.91396,0,111358
111359,Pritchard at Guthrie,49.68764,-124.91707,0,111359
111360,Pritchard at Skeena,49.68512,-124.91701,0,111360
111361,Pritchard at Noel,49.68241,-124.91707,0,111361
111362,Pritchard at Dogwood,49.67976,-124.9171,0,111362
111363,Robb at Stewart,49.67871,-124.91913,0,111363
111364,1700 Blk Robb Ave,49.67948,-124.92241,0,111364
111365,Robb at Megin,49.68037,-124.92546,0,111365
111366,Church at Hemlock,49.68194,-124.92696,0,111366
111367,Noel at Holly,49.68249,-124.93314,0,111367
110559,Back Rd at McDonald,49.68468,-124.95786,0,110559
110561,Back Rd at 10th St E,49.69959,-124.9762,0,110561
111476,NIC / Aquatic Ctr,49.71117,-124.96823,0,111476
103871,2700 Blk Comox Rd,49.68076,-124.97208,0,103871
103870,Comox at Scott,49.67914,-124.96564,0,103870
110545,Comox at Queneesh,49.67812,-124.95792,0,110545
111340,St Joseph's Hospital,49.67547,-124.94173,0,111340
111323,Comox Mall,49.67301,-124.92481,0,111323
111324,Comox at Ellis,49.67468,-124.93024,0,111324
110377,Comox at Scott,49.6792,-124.96534,0,110377
103872,2700 Blk Comox Rd,49.68086,-124.97199,0,103872
111336,Cliffe at 19th St,49.68183,-124.98654,0,111336
111499,Cliffe at Mansfield,49.67871,-124.98429,0,111499
111275,Anfield Centre,49.6683,-124.97996,0,111275
111276,Kilpatrick at 30th St,49.67016,-124.98099,0,111276
111277,Kilpatrick at 29th St,49.67209,-124.98342,0,111277
134005,Kilpatrick at 27th St,49.6735,-124.98503,0,134005
111423,26th St at Kilpatrick Ave,49.67406,-124.98848,0,111423
111412,Piercy at 26th St,49.67356,-124.99204,0,111412
111424,Piercy at 21st St,49.67624,-124.99548,0,111424
111425,Piercy at 18th St,49.67834,-124.99828,0,111425
111426,17th St at Willemar Ave,49.677,-125.0033,0,111426
111427,Cumberland at 16th St,49.67833,-125.00404,0,111427
111428,Cumberland at Piercy,49.6816,-125.00353,0,111428
111429,Piercy at Cumberland,49.68261,-125.0039,0,111429
111430,10th St at Stewart Ave,49.68285,-125.00613,0,111430
111417,10th St at Willemar Ave,49.68126,-125.00911,0,111417
111431,5th St at Urquhart Ave,49.68281,-125.00979,0,111431
110550,Woods at 2nd St,49.68653,-125.01419,0,110550
134008,Guthrie at Pritchard,49.68802,-124.91741,0,134008
111370,Guthrie at Stadacona,49.68848,-124.93785,0,111370
111371,Guthrie at Aspen,49.68856,-124.94253,0,111371
134014,Lerwick at McDonald,49.69119,-124.94861,0,134014
111372,Lerwick at Inverclyde,49.69512,-124.95373,0,111372
111374,2100 Blk Lerwick Rd,49.69639,-124.95538,0,111374
111375,Lerwick at Valley View,49.69966,-124.95594,0,111375
111479,Mark R. Isfeld School,49.70368,-124.95919,0,111479
103862,Hwy 19A at Hayward,49.64407,-124.93838,0,103862
111483,Hwy 19A at Royston,49.64587,-124.94602,0,111483
103869,Hwy 19A at Hilton,49.65133,-124.9566,0,103869
134007,Cliffe at Anfield,49.66781,-124.97689,0,134007
111383,Cliffe at 14th St,49.68615,-124.99259,0,111383
110529,Cliffe at 11th St,49.68814,-124.99486,0,110529
111384,Back Rd at Tunner,49.70064,-124.98165,0,111384
111456,Back Rd at 6th St E,49.70026,-124.97875,0,111456
111473,Back Rd at 10th St E,49.69948,-124.97622,0,111473
110560,Back Rd at McDonald,49.6854,-124.95837,0,110560
111415,Menzies at 8th St,49.68605,-125.00618,0,111415
111416,Pidcock at Bryan,49.68545,-125.00718,0,111416
111398,Menzies at 3rd St,49.68883,-125.0093,0,111398
111406,5th St at Willemar Ave,49.68263,-125.01011,0,111406
111418,10th St at Willemar Ave,49.68122,-125.00887,0,111418
111419,10th St at Stewart Ave,49.68263,-125.00641,0,111419
111420,Cumberland at Piercy,49.68182,-125.00352,0,111420
111421,Cumberland at 16th St,49.67832,-125.00414,0,111421
111422,1800 Blk Willemar Ave,49.6757,-125.00239,0,111422
111408,Willemar at 20th St,49.67393,-125.00013,0,111408
111409,21st St at Urquhart Ave,49.67378,-124.9977,0,111409
111410,21st St at Stewart Ave,49.67503,-124.99543,0,111410
111411,2300 Blk Piercy Ave,49.67415,-124.99304,0,111411
111413,26th St at Piercy Ave,49.67281,-124.99047,0,111413
111414,26th St at Kilpatrick Ave,49.67412,-124.98809,0,111414
134004,Driftwood Mall,49.67567,-124.98438,0,134004
134006,Cliffe at Anfield,49.66794,-124.97726,0,134006
111368,Anderton Rd at Bolt Ave,49.68396,-124.93501,0,111368
111369,Anderton Rd at Guthrie Rd,49.68763,-124.93486,0,111369
111478,Lerwick at Malahat,49.70586,-124.95968,0,111478
111377,Lerwick at Ryan,49.70975,-124.96468,0,111377
134010,NIC / Aquatic Ctr,49.71121,-124.96839,0,134010
110305,Ryan at Back Rd,49.70154,-124.98271,0,110305
111378,800 Blk Ryan Rd,49.6996,-124.98631,0,111378
111379,Ryan at Puntledge,49.69742,-124.9903,0,111379
111507,Cumberland at Stockand,49.62448,-125.02506,0,111507
111503,4th St at Ulverston Ave,49.62297,-125.02701,0,111503
111505,7th St at Penrith Ave,49.62088,-125.02107,0,111505
111289,Dunsmuir at 6th St,49.61961,-125.02297,0,111289
111290,Dunsmuir at 4th St,49.61922,-125.02699,0,111290
111461,2000 Blk Lake Trail Rd,49.67876,-125.01376,0,111461
111467,20th St at Cousins Ave,49.67286,-125.00254,0,111467
111327,Robb at Thistle,49.68079,-124.93809,0,111327
111329,Aitken St at McKenzie Ave,49.67981,-124.94395,0,111329
111330,Downey at Aitken,49.67807,-124.94326,0,111330
111331,Downey at Rodello,49.67802,-124.94059,0,111331
110534,Beaufort at Church,49.67363,-124.92898,0,110534
110535,Beaufort at Wilcox,49.67263,-124.92709,0,110535
110536,Beaufort at Nordin,49.67215,-124.92564,0,110536
111322,Comox at Pritchard,49.67205,-124.92103,0,111322
111291,Dunsmuir at 1st St,49.61881,-125.03163,0,111291
111292,Egremont at Dunsmuir,49.61877,-125.03455,0,111292
111293,Egremont at Ulverston,49.62229,-125.03624,0,111293
111501,Egremont at Rydal,49.62411,-125.03667,0,111501
111500,1st St at Rydal Ave,49.62413,-125.03237,0,111500
111294,Windermere at 1st St,49.62128,-125.03133,0,111294
111502,3rd St at Kendal Ave,49.62293,-125.02762,0,111502
111295,Cumberland at Stockand,49.62451,-125.0248,0,111295
111452,Comox Valley Airport,49.70605,-124.90676,0,111452
110525,Anderton Rd at Galleon Way,49.7049,-124.93402,0,110525
111475,Ryan at Crown Isle,49.7123,-124.96246,0,111475
111280,Fitzgerald at 21st St,49.67921,-124.98679,0,111280
110539,Fitzgerald at 19th St,49.6814,-124.99007,0,110539
111281,Fitzgerald at 16th St,49.6835,-124.99361,0,111281
111282,Fitzgerald at 13th St,49.68523,-124.9963,0,111282
111284,Fitzgerald at 8th St,49.68771,-124.99955,0,111284
110530,Downtown Courtenay,49.69187,-124.99855,0,110530
111297,Ryan at Puntledge,49.69753,-124.98982,0,111297
111298,1000 Blk Ryan Rd,49.69981,-124.98539,0,111298
111477,Lerwick at Ryan,49.70945,-124.96452,0,111477
103868,Marine at Greig,49.64513,-124.93952,0,103868
103867,Hayward at Hwy 19A,49.64368,-124.93638,0,103867
111506,Royston at Ulverston,49.62129,-125.00972,0,111506
111288,Dunsmuir at Carlisle,49.62018,-125.01741,0,111288
111455,10th St E at G. Urquhart Dr,49.70018,-124.9737,0,111455
111385,Sitka at 10th St E,49.70091,-124.97149,0,111385
111386,Sitka at Malahat,49.7,-124.96936,0,111386
111387,Thorpe at Malahat,49.70004,-124.96725,0,111387
111388,Thorpe at Griffin,49.69779,-124.96361,0,111388
111389,Valley View at Partridge,49.69752,-124.96104,0,111389
111481,Valley View at Lerwick,49.69949,-124.95743,0,111481
134013,Malahat at Elkhorn,49.7046,-124.96241,0,134013
111480,Cowichan at 4th St E,49.70731,-124.96939,0,111480
111299,NIC Campus,49.70988,-124.97097,0,111299
110248,Lerwick at Waters,49.71415,-124.97026,0,110248
111390,Mission at Walbran,49.71346,-124.97503,0,111390
111391,Mission at Shetland,49.71194,-124.97796,0,111391
111392,Muir at Anna,49.71291,-124.97994,0,111392
111393,Muir at Cruickshank,49.71187,-124.98355,0,111393
111394,McLauchlin at MacIntyre,49.7106,-124.98476,0,111394
111463,McLauchlin at Dingwall,49.70808,-124.98168,0,111463
111395,McLauchlin at Panorama,49.70599,-124.98066,0,111395
111396,Centennial at Back Rd,49.70217,-124.98304,0,111396
111325,Anderton Rd at Buena Vista Ave,49.67658,-124.93506,0,111325
111326,Anderton at Robb,49.68013,-124.93528,0,111326
111270,Downtown Courtenay,49.69201,-124.9984,0,111270
111488,Fitzgerald at 5th St,49.68958,-125.00138,0,111488
111271,Fitzgerald at 8th St,49.68772,-124.99974,0,111271
111474,Fitzgerald at 13th St,49.68514,-124.99642,0,111474
134002,Fitzgerald at 16th St,49.68354,-124.99384,0,134002
111272,Fitzgerald at 18th St,49.68166,-124.99065,0,111272
111273,Fitzgerald at 21st St,49.67979,-124.98748,0,111273
111274,Fitzgerald at 23rd St,49.67716,-124.98596,0,111274
103863,Hwy 19A at McLeod,49.5811,-124.88456,0,103863
110337,Hwy 19A at Spindrift,49.62213,-124.91326,0,110337
110338,Hwy 19A at Gartley,49.63866,-124.92866,0,110338
111448,Ryan at Crown Isle Plaza,49.71161,-124.96322,0,111448
134012,Anderton at Ryan,49.71571,-124.9336,0,134012
111450,Military at Ryan,49.71393,-124.90911,0,111450
111451,Military at Rose,49.7086,-124.90912,0,111451
110524,Hwy 19A at Royston,49.64578,-124.94589,0,110524
103865,Hwy 19A at Herondale,49.6296,-124.91872,0,103865
110493,Hwy 19A at Spindrift,49.62073,-124.9134,0,110493
111435,Hwy 19A at Russell,49.5867,-124.88728,0,111435
110523,Hwy 19A at Union Bay,49.58373,-124.88616,0,110523
111492,Vanier at Sports Centre,49.71159,-125.00109,0,111492
110227,Vets' Memorial at Caledon,49.71581,-124.98776,0,110227
134009,Pritchard at Guthrie,49.68825,-124.91687,0,134009
103874,Ryan at Little River,49.7151,-124.9099,0,103874
110546,Hwy 19A at Virginia,49.72006,-124.99318,0,110546
134023,Hwy 19A at Rennison,49.72833,-124.99572,0,134023
134017,Hwy 19A at Sackville,49.78362,-125.05661,0,134017
110542,Hwy 19A at Krueger,49.79473,-125.07438,0,110542
110544,Hwy 19A at Black Creek,49.81442,-125.11839,0,110544
134019,Hwy 19A at White,49.83356,-125.12977,0,134019
134020,MacAulay at Hamm,49.84985,-125.13571,0,134020
110398,Tammy at MacAuley,49.86072,-125.14771,0,110398
134021,Glenmore at Lambeth,49.86991,-125.12904,0,134021
112064,Croydon at Upland,49.87338,-125.13114,0,112064
103860,Clarkson at Eyre,49.86431,-125.11673,0,103860
110553,Clarkson at Maple,49.86058,-125.11596,0,110553
110554,Clarkson at Beach,49.85118,-125.10282,0,110554
110413,Miracle Beach at Hwy 19A,49.85184,-125.13165,0,110413
103861,Hwy 19A at White,49.83352,-125.12984,0,103861
110543,Hwy 19A at Black Creek,49.81413,-125.11843,0,110543
134018,Hwy 19A at Merville,49.78349,-125.05693,0,134018
134016,Hwy 19A at Rennison,49.72851,-124.99605,0,134016
110547,Hwy 19A at Virginia,49.72195,-124.99353,0,110547
111438,Hwy 19A at Fanny Bay,49.47266,-124.79517,0,111438
110551,Hwy 19A at Ships Point,49.49071,-124.81291,0,110551
103864,Hwy 19A at Denman,49.52559,-124.85003,0,103864
110336,Hwy 19A at Garvin,49.56211,-124.87356,0,110336
110528,Cliffe at 8th St,49.68993,-124.99633,0,110528
111382,Cliffe at 11th St,49.6875,-124.99422,0,111382
111490,Cliffe at 17th St,49.68489,-124.99168,0,111490
110324,Hwy 19A at Buckley Bay,49.52396,-124.84848,0,110324
111437,Hwy 19A at Ships Point,49.49017,-124.81184,0,111437
110397,Bates at Seal Bay Park,49.76095,-124.97175,0,110397
110420,Bates at Coleman,49.77848,-124.98916,0,110420
110448,Merville at Hwy 19A,49.7838,-125.05829,0,110448
110379,Anderton Rd at Greenwood Cres,49.71734,-124.93356,0,110379
111380,Old Island Hwy at Puntledge,49.69506,-124.99251,0,111380
111332,St Joseph's Hospital,49.67554,-124.94205,0,111332
110555,Back Rd at Tatpoos,49.68068,-124.95294,0,110555
110557,Back Rd at Sahtloot,49.6823,-124.95576,0,110557
110558,Back Rd at Sahtloot,49.68212,-124.95587,0,110558
110556,Back Rd at Tatpoos,49.68054,-124.95306,0,110556
111504,Ulverston at 7th St,49.62278,-125.02186,0,111504
111328,Robb at Rodello,49.68088,-124.94156,0,111328
110533,Rodello at Fairbairn,49.67631,-124.94019,0,110533
111449,BC Ferries - Little River,49.74018,-124.92512,0,111449
110303,Lerwick at Waters,49.71317,-124.96927,0,110303
134011,Ryan at Anderton,49.71503,-124.93268,0,134011
103873,Ryan at Greenwood,49.71495,-124.92814,0,103873
110247,Vets' Memorial at Wentworth,49.71559,-124.98866,0,110247
111407,2100 Blk 20th St,49.67111,-125.00571,0,111407
111333,Comox at Queneesh,49.67823,-124.95804,0,111333
910000,Comox Valley Garage,49.70244,-124.91806,0,910000
110566,Menzies at 2nd St,49.68884,-125.00957,0,110566
110563,Anfield Centre,49.66824,-124.97981,0,110563
110562,Anfield Centre,49.66825,-124.97984,0,110562
110565,Cowichan at 5th St E,49.70651,-124.96824,0,110565
110564,Downtown Courtenay,49.69254,-124.99832,0,110564
111442,Kingfisher Resort,49.63205,-124.92034,0,111442
