stop_id,stop_name,stop_lat,stop_lon,wheelchair_boarding,stop_code
104577,Lansdowne Exchange,50.67685,-120.32626,0,104577
104618,North Shore Exchange,50.69778,-120.36016,0,104618
104318,Lansdowne Exchange,50.67676,-120.32633,0,104318
104654,Lansdowne Exchange,50.67676,-120.32578,0,104654
104614,North Shore Exchange,50.69787,-120.36041,0,104614
104504,Lansdowne Exchange,50.67685,-120.32592,0,104504
104200,Lansdowne Exchange,50.67676,-120.3269,0,104200
104453,TRU Exchange,50.67074,-120.36864,0,104453
104405,TRU Exchange,50.67084,-120.36846,0,104405
951000,Kamloops Transit Centre,50.71127,-120.38149,0,951000
104251,North Shore Exchange,50.69788,-120.36004,0,104251
104227,Crestline at Fleetwood,50.70585,-120.42115,0,104227
104341,Westsyde at Oak Hills,50.74525,-120.35733,0,104341
104291,Crestline at Fleetwood,50.70625,-120.42096,0,104291
104265,Lansdowne Exchange,50.67676,-120.3266,0,104265
104479,Lansdowne Exchange,50.67688,-120.32563,0,104479
104625,Old Highway 5 at Todd Mountain Road,50.86033,-120.26536,0,104625
104743,Dallas 7590 block,50.65879,-120.12303,0,104743
104747,Wildlife Park,50.65461,-120.07874,0,104747
104381,North Shore Exchange,50.69783,-120.3598,0,104381
104512,TRU Exchange,50.67096,-120.36826,0,104512
104353,Harrington at Overlander,50.77544,-120.3328,0,104353
104671,QuAppelle at Stikine,50.66118,-120.26281,0,104671
104610,TRU Exchange,50.67114,-120.3682,0,104610
104389,Lansdowne Exchange,50.67676,-120.32606,0,104389
104277,Halston at 13th St,50.70887,-120.37521,0,104277
151034,Tranquille at Desmond,50.70011,-120.39286,0,151034
104578,TRU Exchange,50.67107,-120.36807,0,104578
104201,Lansdowne at 4th Ave,50.67671,-120.3329,0,104201
104202,Lansdowne at 2nd Ave,50.67673,-120.3374,0,104202
151032,Victoria St W at 200 Blk,50.67744,-120.34399,0,151032
104204,Tranquille at Don,50.68488,-120.35135,0,104204
104205,Tranquille at Palm,50.68633,-120.35614,0,104205
104206,Tranquille at Clapperton,50.68775,-120.35738,0,104206
104207,Tranquille at Wood,50.68886,-120.35784,0,104207
104208,Tranquille at Oak,50.6927,-120.35936,0,104208
104209,Tranquille at Vernon,50.6958,-120.36047,0,104209
104210,North Shore Exchange,50.69788,-120.35954,0,104210
104212,Tranquille at 11th St,50.70047,-120.36925,0,104212
104213,Tranquille at 12th St,50.70104,-120.37319,0,104213
104214,Tranquille at Valhalla,50.7015,-120.37623,0,104214
104215,Tranquille at Nicolani,50.70209,-120.38003,0,104215
104216,Tranquille at Singh,50.70276,-120.38482,0,104216
104217,Tranquille at Holt,50.70191,-120.38925,0,104217
104218,Tranquille at Desmond,50.69994,-120.39362,0,104218
104219,Tranquille at Southill,50.69988,-120.39884,0,104219
104220,Tranquille at Caroline,50.70006,-120.40148,0,104220
104221,Tranquille at Windbreak,50.70034,-120.40469,0,104221
104222,Tranquille at Invermere,50.70109,-120.4087,0,104222
104223,Tranquille at Shelan,50.70159,-120.4117,0,104223
104224,Tranquille at Schreiner,50.7018,-120.41637,0,104224
104225,Crestline at Glenview,50.70249,-120.42291,0,104225
104226,Crestline at Young,50.7044,-120.42227,0,104226
104234,Fleetwood at Schreiner,50.7059,-120.41648,0,104234
104235,Greenfield at Schreiner,50.7048,-120.41512,0,104235
104236,Greenfield at Westgate,50.70473,-120.40923,0,104236
104237,Greenfield at Windbreak,50.70468,-120.40448,0,104237
104238,Windbreak at Sunnycrest,50.7025,-120.4044,0,104238
104239,Tranquille at Windbreak,50.7001,-120.40388,0,104239
104241,Tranquille at Southill,50.69977,-120.39845,0,104241
104243,Tranquille at Holt,50.70219,-120.38823,0,104243
104244,Tranquille at Singh,50.70246,-120.38387,0,104244
104245,Tranquille at Nicolani,50.70201,-120.38088,0,104245
104246,Tranquille at Lepine,50.70155,-120.37805,0,104246
151036,Tranquille at Barrie,50.70114,-120.3753,0,151036
104248,Tranquille at 12th St,50.70062,-120.37166,0,104248
104249,Tranquille at 10th St,50.70015,-120.36856,0,104249
104250,Fortune at Tranquille,50.69935,-120.36368,0,104250
104253,Tranquille at Yew North,50.69304,-120.35966,0,104253
104254,Tranquille at Yew South,50.69134,-120.35902,0,104254
104255,Tranquille at MacKenzie,50.68962,-120.35835,0,104255
104256,Tranquille at Knox,50.68717,-120.35699,0,104256
104257,Tranquille at Palm,50.6854,-120.35556,0,104257
104258,Tranquille at Wilson,50.68457,-120.35242,0,104258
104259,Tranquille at Leigh,50.68482,-120.35103,0,104259
104260,Victoria St West 200 Block,50.67765,-120.34528,0,104260
104261,Seymour at 1st Ave,50.67525,-120.33848,0,104261
104262,Seymour at 3rd Ave,50.67491,-120.33544,0,104262
104263,Seymour at 4th Ave,50.6749,-120.3314,0,104263
104264,6th Ave at Victoria,50.6756,-120.32706,0,104264
104266,Yew at Tranquille,50.69155,-120.35957,0,104266
104267,MacKenzie at Maple,50.69199,-120.36281,0,104267
104268,MacKenzie at Willow,50.69312,-120.36537,0,104268
104269,Willow at Stewart,50.69457,-120.36413,0,104269
104270,Cottonwood at Willow,50.6966,-120.3654,0,104270
104271,Cottonwood at Kenora,50.69662,-120.36901,0,104271
104272,Kenora at 12th St,50.69808,-120.37151,0,104272
104273,12th St at Surrey,50.70143,-120.3726,0,104273
104274,12th St at Selkirk,50.70361,-120.37253,0,104274
104275,12th St at Pembroke,50.70589,-120.3725,0,104275
104276,12th St at Halston,50.70834,-120.37242,0,104276
104278,Parkcrest at Nicolani,50.70939,-120.38058,0,104278
104279,Parkcrest at Singh,50.70948,-120.38455,0,104279
104280,Parkcrest at Holt,50.70955,-120.38799,0,104280
104281,Fleetwood at Holt,50.70786,-120.38917,0,104281
104282,Fleetwood at Desmond,50.70637,-120.39267,0,104282
104283,Fleetwood at Southill,50.70578,-120.39733,0,104283
104284,Parkcrest at Bentley,50.70784,-120.39921,0,104284
104285,Parkcrest at Ponlen,50.70788,-120.4019,0,104285
104286,Parkcrest at Windbreak,50.70787,-120.40444,0,104286
104287,Parkcrest at McLean,50.7079,-120.41014,0,104287
104289,Parkcrest at Schreiner,50.70794,-120.41551,0,104289
104290,Schreiner at Fleetwood,50.70643,-120.416,0,104290
104292,Crestline at Parkcrest,50.7079,-120.42066,0,104292
104293,Crestline at Rosewood,50.70932,-120.42068,0,104293
104294,2500 block Briarwood,50.71007,-120.41895,0,104294
104295,Schreiner at Paulsen,50.70943,-120.4159,0,104295
104296,Parkcrest at Schreiner,50.70782,-120.41502,0,104296
104297,Parkcrest at McLean,50.70781,-120.41036,0,104297
104298,Parkcrest at Windbreak,50.70777,-120.40479,0,104298
104299,Parkcrest at Ponlen,50.70775,-120.40152,0,104299
104300,Southill at Parkcrest,50.7074,-120.39763,0,104300
104301,Fleetwood at Southill,50.70566,-120.39694,0,104301
104302,Fleetwood at Desmond,50.70623,-120.39261,0,104302
104303,Fleetwood at Holt,50.70781,-120.3889,0,104303
104304,Parkcrest at Holt,50.70945,-120.388,0,104304
104305,Parkcrest at Singh,50.70933,-120.38314,0,104305
104306,Parkcrest at Ollek,50.70927,-120.37946,0,104306
104307,Halston at 13th St,50.70872,-120.37396,0,104307
104308,12th St at Pembroke,50.70651,-120.37264,0,104308
104309,12th St at Selkirk,50.70364,-120.3727,0,104309
104311,Kenora at 12th St,50.698,-120.3716,0,104311
104312,Cottonwood at Kenora,50.69652,-120.36878,0,104312
104313,Cottonwood at Willow,50.69648,-120.365,0,104313
151033,Willow at Cottonwood,50.69548,-120.36338,0,151033
104315,Willow at MacKenzie,50.69374,-120.36527,0,104315
104316,MacKenzie at Thrupp,50.69216,-120.3635,0,104316
104317,MacKenzie at Williams,50.69056,-120.35989,0,104317
104327,8th St at Fortune,50.70014,-120.36293,0,104327
104328,8th St at Richmond,50.70258,-120.36337,0,104328
104329,8th St at Sherbrooke,50.7041,-120.36365,0,104329
104330,8th St at York Ave,50.70668,-120.3641,0,104330
104619,Halston 710 block,50.71069,-120.35965,0,104619
104620,Halston Connector at Salish,50.71177,-120.33552,0,104620
104624,Old Highway 5 6790 block,50.85102,-120.26682,0,104624
104626,Puett Ranch at Old Highway 5,50.79736,-120.31244,0,104626
104627,Cammeray at Puett Ranch,50.79777,-120.31485,0,104627
104628,Cammeray at Strawberry,50.79979,-120.31467,0,104628
104629,Cammeray at Chilco,50.80315,-120.3124,0,104629
104630,Reighmount at Pinantan,50.80413,-120.31268,0,104630
104631,Reighmount at Kathleen,50.80496,-120.31797,0,104631
104632,Aspen Park at Spurraway,50.80398,-120.3211,0,104632
104633,Aspen Park at Helmcken,50.80114,-120.32307,0,104633
104634,Spurraway at Helmcken,50.80058,-120.32043,0,104634
104635,Spurraway at Puett Ranch,50.79758,-120.32038,0,104635
104636,Furiak at Puett Ranch,50.79696,-120.32294,0,104636
104637,Mattoch-McKeague at Furiak,50.79318,-120.32211,0,104637
104770,Mattoch-McKeague at Cameron,50.79195,-120.31789,0,104770
104638,Old Highway 5 at Mattoch-McKeague,50.79111,-120.31587,0,104638
104639,Old Highway 5 at Devick,50.78822,-120.31762,0,104639
104640,Halston Connector at Josep,50.71176,-120.33504,0,104640
104376,8th St at Sudbury,50.70697,-120.36449,0,104376
151011,Grasslands Blvd 2027 Block,50.72441,-120.36757,0,151011
104649,Batchelor at Grasslands,50.72034,-120.3699,0,104649
104655,Seymour at 6th Ave,50.67482,-120.32667,0,104655
104656,Seymour at 8th Ave,50.67478,-120.32177,0,104656
104657,Victoria at 10th Ave,50.67393,-120.31565,0,104657
104658,Battle at 12th Ave,50.67307,-120.31135,0,104658
104659,Battle at Columbia,50.67308,-120.30692,0,104659
104660,Valleyview at Rose Hill,50.6723,-120.29461,0,104660
104661,Valleyview at Comazzetto,50.67446,-120.29061,0,104661
104662,Valleyview at Knollwood,50.67517,-120.28811,0,104662
104663,Valleyview at Orchard,50.67574,-120.28341,0,104663
104664,Valleyview at Cardinal,50.67589,-120.27675,0,104664
104665,Oriole at Glenwood,50.6774,-120.27225,0,104665
104666,Falcon at Oriole,50.67882,-120.27153,0,104666
104667,E TCH Hwy Frtg at Industrial,50.68008,-120.26701,0,104667
104668,Flamingo at Highland,50.67873,-120.26183,0,104668
104669,Highland at Crescent,50.67737,-120.26199,0,104669
104670,Highland and Valleyview dr.,50.67625,-120.26242,0,104670
104672,Coldwater at Skeena,50.66012,-120.26516,0,104672
104673,Skeena 2100 block,50.66016,-120.26157,0,104673
104674,Skeena 2210 block,50.65992,-120.25792,0,104674
104675,Finlay at Omineca,50.66101,-120.25442,0,104675
104676,QuAppelle at Finlay,50.66195,-120.2539,0,104676
104677,QuAppelle at Abitibi,50.66167,-120.24908,0,104677
104678,QuAppelle at Nechako,50.66058,-120.24593,0,104678
104679,QuAppelle at Adams,50.65937,-120.24322,0,104679
104680,QuAppelle at Capilano,50.6584,-120.23731,0,104680
104681,Churchill at Squamish,50.65886,-120.23463,0,104681
104682,Capilano at QuAppelle,50.65952,-120.23789,0,104682
104683,QuAppelle at Capilano,50.6588,-120.23905,0,104683
104684,QuAppelle at Adams,50.65948,-120.24315,0,104684
104685,QuAppelle at Nechako,50.66064,-120.2457,0,104685
104686,QuAppelle at Bella Coola,50.6618,-120.24845,0,104686
104687,QuAppelle at Finlay,50.66218,-120.25429,0,104687
104688,QuAppelle 2200 block,50.66144,-120.25764,0,104688
104689,QuAppelle at Highland,50.66109,-120.2609,0,104689
104691,Highland at Valleyview,50.67661,-120.26195,0,104691
104692,Highland at Crescent,50.67791,-120.26137,0,104692
104693,Flamingo at Highland,50.6789,-120.26211,0,104693
104694,E TCH Hwy Frtg at Industrial,50.68015,-120.26668,0,104694
104695,Falcon at Oriole,50.67893,-120.27139,0,104695
104698,Valleyview at Knollwood Dr,50.67572,-120.2844,0,104698
104699,Valleyview at Knollwood Cr,50.67519,-120.28889,0,104699
104700,Valleyview at Strom,50.67425,-120.29106,0,104700
104701,Valleyview at E TCH Hwy Frtg,50.67251,-120.29613,0,104701
104702,Columbia at Nicola,50.67219,-120.30774,0,104702
104494,Columbia at 13th Ave,50.67138,-120.31037,0,104494
104495,Columbia at 12th Ave,50.67139,-120.31222,0,104495
104703,Columbia at 10th Ave,50.67143,-120.31698,0,104703
104704,Columbia at 8th Ave,50.67151,-120.32178,0,104704
104500,Columbia at 7th Ave,50.67142,-120.32466,0,104500
104319,Fortune at Baker,50.68621,-120.34716,0,104319
104320,Fortune at Fort,50.6883,-120.34811,0,104320
104321,Fortune at Spruce,50.69031,-120.35069,0,104321
104322,Fortune at Wood,50.69179,-120.35279,0,104322
104323,Fortune at Aspen,50.69297,-120.3544,0,104323
104324,Fortune at Chestnut,50.69507,-120.35589,0,104324
104325,Fortune at Holly,50.69658,-120.35666,0,104325
104326,North Shore Exchange,50.69794,-120.35967,0,104326
104331,Westsyde at Collingwood,50.71386,-120.36381,0,104331
104380,8th St at Fortune,50.69993,-120.36322,0,104380
104382,Fortune at Nelson,50.69643,-120.35698,0,104382
104383,Fortune at Oak,50.69433,-120.35603,0,104383
104384,Fortune at Aspen,50.69253,-120.35426,0,104384
104385,Fortune at Wood,50.69137,-120.35243,0,104385
104386,Fortune at Spruce,50.69002,-120.35075,0,104386
104387,Fortune at Leigh,50.68754,-120.34772,0,104387
104388,Fortune at Larch,50.68579,-120.34731,0,104388
104430,Pacific at Pearson,50.64986,-120.37951,0,104430
104431,Hillside at Pacific,50.65449,-120.37614,0,104431
104432,Aberdeen Mall,50.65569,-120.37211,0,104432
104433,Hillside at Cariboo,50.66114,-120.36969,0,104433
104551,Notre Dame at Dalhousie,50.66344,-120.3634,0,104551
104552,Notre Dame at Cemetery,50.6635,-120.35919,0,104552
104553,Notre Dame at Laval,50.66355,-120.35681,0,104553
104554,Notre Dame at Columbia St W,50.6634,-120.35212,0,104554
104557,Summit at Arrowstone,50.66702,-120.35232,0,104557
104402,McGill at University,50.66819,-120.36139,0,104402
104403,Dalhousie at McGill,50.66808,-120.36409,0,104403
104404,Campus Way at Wolfpack Rd,50.67026,-120.36531,0,104404
104406,Hillside at McGill,50.66881,-120.37007,0,104406
104439,McGill at Dalhousie,50.66771,-120.36319,0,104439
104513,Summit 1000 block,50.66783,-120.35725,0,104513
104514,Summit at Arrowstone,50.6664,-120.35137,0,104514
104521,Notre Dame at Hillside,50.66326,-120.36933,0,104521
104409,Aberdeen Mall,50.65534,-120.37237,0,104409
104410,Pacific at Hillside,50.65438,-120.37831,0,104410
104411,Pacific at Hugh Allan,50.65142,-120.38061,0,104411
104392,4th Ave at Nicola,50.67194,-120.33208,0,104392
104481,Columbia at 5th Ave,50.67125,-120.32932,0,104481
104490,Fraser at McMurdo,50.6656,-120.31624,0,104490
104491,11th Ave at Douglas,50.66794,-120.31416,0,104491
104492,Pine at 11th Ave,50.66954,-120.31368,0,104492
104493,13th Ave at Pine,50.6699,-120.3093,0,104493
104496,11th Ave at Columbia,50.67176,-120.31413,0,104496
104497,Battle at 11th Ave,50.67317,-120.31466,0,104497
104498,Battle at 9th Ave,50.67319,-120.31936,0,104498
104499,7th Ave at Battle,50.67291,-120.32436,0,104499
104508,Columbia at 5th Ave,50.67149,-120.33004,0,104508
104451,3rd Ave at Battle,50.67356,-120.33432,0,104451
104452,3rd Ave at Seymour,50.67466,-120.33432,0,104452
104501,Ponderosa Lodge Entrance,50.66967,-120.33141,0,104501
104450,3rd Ave at Columbia,50.67182,-120.33436,0,104450
104506,6th Ave at St Paul,50.67371,-120.32726,0,104506
104393,Columbia at 3rd Ave,50.67157,-120.33396,0,104393
104394,Sahali 700 block,50.67155,-120.34471,0,104394
104395,Sahali at Pemberton,50.67061,-120.34306,0,104395
104396,Bestwick at Anvil,50.66911,-120.34119,0,104396
104910,McGill at Bestwick,50.66727,-120.33871,0,104910
104397,McGill at Monashee,50.66746,-120.34044,0,104397
104398,McGill 200 block,50.66734,-120.34422,0,104398
104399,McGill at Chapperon,50.66908,-120.34966,0,104399
104400,McGill at Frontage,50.66994,-120.35277,0,104400
104401,McGill at Summit,50.66948,-120.35639,0,104401
104407,Hillside 1000 block,50.66523,-120.37292,0,104407
104408,Hillside at Notre Dame,50.66395,-120.37184,0,104408
104522,Hillside Way at Aberdeen Mall,50.65599,-120.36923,0,104522
104547,Rogers Way at Rogers Pl,50.65147,-120.36804,0,104547
104548,Hillside Way at Aberdeen Mall,50.65568,-120.36883,0,104548
104434,Hillside at Notre Dame,50.66422,-120.37172,0,104434
104436,Hillside at McGill,50.66883,-120.36973,0,104436
104437,TRU Exchange,50.67124,-120.36804,0,104437
104438,Campus Way at Wolfpack Rd,50.67012,-120.36506,0,104438
104440,McGill at Summit,50.66919,-120.35653,0,104440
104441,McGill at Frontage,50.66983,-120.35275,0,104441
104442,McGill at Chapperon,50.66884,-120.34945,0,104442
104443,McGill 240 block,50.6672,-120.34427,0,104443
104444,McGill at Monashee,50.66732,-120.34163,0,104444
104445,McGill at Bestwick,50.66718,-120.33893,0,104445
104446,Bestwick at Greenstone,50.66863,-120.33859,0,104446
104447,Bestwick at Sahali,50.66942,-120.34164,0,104447
104448,Sahali at Pemberton,50.67095,-120.34305,0,104448
104449,Sahali at Columbia St,50.67217,-120.34467,0,104449
151004,Columbia  at 3rd,50.67131,-120.33368,0,151004
104511,Columbia St at Frontage,50.67246,-120.35368,0,104511
104515,Summit at Notre Dame,50.66315,-120.34846,0,104515
104579,Summit at Springhill,50.66055,-120.34527,0,104579
104580,Springhill 1470 block,50.66098,-120.34747,0,104580
104581,Springhill 1560 block,50.66103,-120.3519,0,104581
104582,Springhill at Springfield,50.65932,-120.35572,0,104582
104583,Springhill at Springview,50.65522,-120.35761,0,104583
104584,Springhill at Gleneagles,50.6537,-120.35961,0,104584
104585,Springhill at Gleneagles,50.65315,-120.36195,0,104585
104586,Gleneagles at Glen Gary,50.65102,-120.35844,0,104586
104587,Gleneagles at Wentworth,50.65027,-120.35595,0,104587
104588,Gleneagles at Skagit,50.65253,-120.35353,0,104588
104589,Gleneagles at Monarch,50.6538,-120.35113,0,104589
104590,Gleneagles 400 block,50.65403,-120.34747,0,104590
104591,Whistler at Gleneagles,50.65177,-120.34424,0,104591
104609,McGill at Camosun,50.6676,-120.36717,0,104609
104559,Columbia St W 600 block,50.67243,-120.35329,0,104559
104707,Valleyview at Highland,50.67615,-120.26135,0,104707
104708,Valleyview at Miller,50.67521,-120.25651,0,104708
104709,Valleyview at River,50.67419,-120.25184,0,104709
104710,Valleyview at MacAdam,50.67324,-120.24543,0,104710
104711,Valleyview at McKay,50.67288,-120.24168,0,104711
151024,Valleyview Dr at Tanager Dr,50.67257,-120.23841,0,151024
151025,2900 block Valleyview Dr,50.67126,-120.2325,0,151025
151023,Grand Blvd at Valleyview Dr,50.67037,-120.22733,0,151023
104733,Dallas at Bogetti,50.66801,-120.18183,0,104733
104734,Dallas at Ridge,50.66798,-120.17726,0,104734
104884,Dallas at Harper,50.66654,-120.17304,0,104884
104735,Dallas at Todd Hill West,50.66567,-120.16976,0,104735
104736,Dallas at Todd Hill East,50.66471,-120.16397,0,104736
104737,Dallas at Mountview,50.66479,-120.15739,0,104737
104738,Dallas at Yarrow,50.66566,-120.15093,0,104738
104739,Dallas 6750 block,50.66566,-120.14534,0,104739
104740,Dallas 7120 block,50.66374,-120.13651,0,104740
104741,Dallas 7320 block,50.66285,-120.13205,0,104741
104742,Dallas at O'Connor,50.6622,-120.12915,0,104742
104744,Dallas at Peerless,50.65622,-120.10543,0,104744
104745,Dallas at Andover,50.65554,-120.09729,0,104745
104746,Dallas at Cougar,50.65548,-120.08394,0,104746
104714,Todd at Crawford,50.66757,-120.18778,0,104714
104715,Todd at Klahanie,50.65712,-120.18436,0,104715
104716,Todd at Lamar,50.65469,-120.18178,0,104716
104717,Todd at Sunrise,50.65117,-120.17966,0,104717
104718,Lamar at Todd,50.64959,-120.17657,0,104718
104719,Lamar at Norland,50.64954,-120.17413,0,104719
104720,Clearview at Wildwood,50.65246,-120.17469,0,104720
104721,Clearview at Belair,50.65301,-120.16963,0,104721
104722,Clearview at Foxwood,50.65185,-120.16476,0,104722
104723,Clearview at Todd,50.65074,-120.16272,0,104723
104724,Todd at Belair,50.64918,-120.16403,0,104724
104725,Todd at Pringle,50.64828,-120.16643,0,104725
104726,Todd at Pratt,50.64562,-120.16985,0,104726
104727,Todd 1450 block,50.64788,-120.17463,0,104727
104728,Todd at Lamar,50.64946,-120.17681,0,104728
104729,Todd at Sunrise,50.65079,-120.17909,0,104729
104730,Todd at Lamar,50.65511,-120.18194,0,104730
104731,Todd at Klahanie,50.65736,-120.18439,0,104731
104732,Todd at Dallas,50.66774,-120.18739,0,104732
104748,Kokanee at E Trans-Canada,50.65955,-120.11905,0,104748
104749,Dallas 7540 block,50.65905,-120.12352,0,104749
104750,Dallas at O'Connor,50.66185,-120.12827,0,104750
104751,Dallas 7300 block,50.6631,-120.13271,0,104751
104752,Dallas 7110 block,50.66386,-120.13652,0,104752
104753,Dallas 6750 block,50.66575,-120.14521,0,104753
104754,Dallas at Yarrow,50.66575,-120.15094,0,104754
104755,Dallas at Mountview,50.66487,-120.15762,0,104755
104756,Dallas at Todd Hill,50.66495,-120.16478,0,104756
104757,Dallas at Harper,50.66693,-120.1736,0,104757
104758,Dallas at Ridge,50.66803,-120.17642,0,104758
104759,Dallas at Bogetti,50.66809,-120.18211,0,104759
104760,E Trans-Canada at Nina,50.66967,-120.18297,0,104760
151022,Grand Blvd at Valleyview Dr,50.67111,-120.22718,0,151022
104832,Valleyview at Sunset,50.67233,-120.2356,0,104832
104762,Valleyview at Tanager,50.67278,-120.23954,0,104762
104763,Valleyview at McKay,50.67313,-120.24301,0,104763
104764,Valleyview at MacAdam,50.67344,-120.24633,0,104764
104765,Valleyview at River,50.67451,-120.25289,0,104765
104766,Valleyview at Park,50.67552,-120.25755,0,104766
104768,Battle at 12th Ave,50.67319,-120.31083,0,104768
104769,Victoria at 10th Ave,50.67425,-120.31583,0,104769
151003,Victoria at 8th,50.67588,-120.32129,0,151003
104909,Batchelor at North River,50.7147,-120.36683,0,104909
104569,Grandview at Garden,50.67476,-120.35147,0,104569
104570,Grandview at Dalgleish,50.67507,-120.35505,0,104570
104571,Centre at Battle St W,50.67572,-120.35604,0,104571
104572,Lombard at Centre,50.67741,-120.35551,0,104572
104573,Strathcona at Hemlock,50.67673,-120.35181,0,104573
104574,Strathcona at Battle St W,50.67611,-120.34898,0,104574
104575,Battle St W at Lee,50.67403,-120.34154,0,104575
104576,Battle at 1st Ave,50.67346,-120.33853,0,104576
104560,Battle at 3rd Ave,50.67328,-120.33512,0,104560
104561,Battle St at 1st Ave,50.67373,-120.33934,0,104561
104562,Battle St  at Lee,50.67425,-120.34224,0,104562
104563,Strathcona at Battle St W,50.67598,-120.34866,0,104563
104564,Strathcona at Hemlock,50.67736,-120.35294,0,104564
104565,Lombard at Centre,50.67754,-120.35573,0,104565
104566,Centre at Battle St,50.67571,-120.35626,0,104566
104567,Grandview at Dalgleish,50.67498,-120.35477,0,104567
104568,Grandview at Dufferin,50.67428,-120.35047,0,104568
104510,Columbia St at Grandview,50.67377,-120.35052,0,104510
104462,Hugh Allan at Lodgepole,50.65372,-120.40195,0,104462
104466,Lodgepole at Englemann,50.65216,-120.40346,0,104466
104467,Lodgepole at Arnica,50.6507,-120.39976,0,104467
104468,Lodgepole at Snowberry,50.65137,-120.39737,0,104468
104469,Copperhead at Lodgepole,50.65246,-120.39695,0,104469
104470,Copperhead at Hugh Allan,50.6537,-120.39834,0,104470
104471,Copperhead at Kryczka,50.65715,-120.40119,0,104471
104472,Copperhead at Versatile,50.65918,-120.39986,0,104472
104473,Hillside at Copperhead,50.66175,-120.39775,0,104473
104474,Hillside 1860 block,50.6608,-120.3933,0,104474
104475,Hillside at Davies,50.65837,-120.38826,0,104475
104476,Hillside at Mount Dufferin Cres,50.65738,-120.38625,0,104476
104477,Hillside at Mount Dufferin Ave,50.65608,-120.38265,0,104477
104478,Hillside at Cannel,50.65537,-120.37995,0,104478
104435,Hillside at McGill,50.66697,-120.37005,0,104435
104454,Hillside at Pacific,50.6554,-120.37941,0,104454
104455,Hillside at Mount Dufferin Ave,50.65621,-120.38332,0,104455
104456,Hillside at Monterey (WB),50.65791,-120.38707,0,104456
104457,Hillside at Mount Dufferin Dr,50.659,-120.38928,0,104457
104458,Hillside 1860 block,50.66087,-120.39319,0,104458
104459,Hillside at Copperhead,50.66175,-120.39732,0,104459
104460,Copperhead at Iron Mask,50.65902,-120.40044,0,104460
104461,Copperhead at Kryczka,50.65636,-120.40076,0,104461
104339,Westsyde at Rue Chez Nous,50.73677,-120.35822,0,104339
151028,Shuswap at Chief Alex Thomas,50.68287,-120.29513,0,151028
151029,Sun Rivers at Talasa Way,50.68718,-120.29732,0,151029
151031,Shuswap at Chief Alex Thomas,50.68301,-120.29489,0,151031
151012,Mt. Paul Way at Chilcotin,50.69079,-120.32207,0,151012
151013,Mt. Paul Way at Carrier,50.68635,-120.32253,0,151013
151014,Athabasca Street 680 Block,50.68291,-120.32565,0,151014
151015,Athabasca St W at Chilcotin,50.6902,-120.33329,0,151015
151016,Chilcotin Rd at 200 Block,50.69064,-120.33643,0,151016
151017,Kamloopa Way at 775 Block,50.69283,-120.33867,0,151017
151018,Kamloopa Way at Mohawk,50.69747,-120.34108,0,151018
151019,George Campbell at Kamloops,50.69918,-120.34315,0,151019
151020,Shuswap at Ricardo,50.70412,-120.33311,0,151020
151021,Ricardo Rd at 1020 Block,50.69866,-120.32694,0,151021
151026,Okanagan Way at Dene Dr,50.6942,-120.32787,0,151026
151027,Chilcotin Rd at Tagish,50.6905,-120.32489,0,151027
151000,1800 block Versatile,50.65876,-120.39608,0,151000
151001,1600 block Versatile,50.65606,-120.3901,0,151001
151002,1500 block Versatile,50.65473,-120.38515,0,151002
104611,McGill Rd at McGill Pl,50.66945,-120.37299,0,104611
104613,McGill at Concordia,50.67383,-120.37589,0,104613
104615,McGill at Concordia,50.67336,-120.37566,0,104615
104617,McGill Rd at McGill Pl,50.66894,-120.37314,0,104617
104377,8th St at Lethbridge,50.70513,-120.36417,0,104377
104378,8th St at Selkirk,50.70367,-120.3639,0,104378
104379,8th St at Moncton,50.70217,-120.36365,0,104379
104648,Raven at Grasslands,50.7226,-120.36783,0,104648
151005,Saddleback at 2038 Block,50.72583,-120.36855,0,151005
104650,Norview Rd at Norview Pl,50.71849,-120.36382,0,104650
104651,North River at Norview,50.71849,-120.36171,0,104651
104652,North River at Leighton,50.71621,-120.3666,0,104652
104653,Batchelor at North River,50.71422,-120.36644,0,104653
104706,6th Ave at St Paul,50.67427,-120.32707,0,104706
104332,Westsyde at Westmount,50.71533,-120.36183,0,104332
104333,Westsyde at Collingwood,50.71711,-120.3597,0,104333
104334,Westsyde at Walkem,50.71906,-120.35955,0,104334
104335,Westsyde at Yates,50.72132,-120.35971,0,104335
104336,Westsyde at Anderson,50.72455,-120.35863,0,104336
104337,Westsyde at McQueen,50.72922,-120.35904,0,104337
104338,Westsyde at Woodhaven,50.73163,-120.35866,0,104338
104340,Westsyde at Parkview,50.74146,-120.35724,0,104340
104342,Westsyde at Franklin,50.7509,-120.35494,0,104342
104343,Westsyde at Morven,50.75356,-120.35233,0,104343
104344,Westsyde at Soldier,50.75606,-120.34999,0,104344
104345,Westsyde at Garnet,50.75926,-120.34877,0,104345
104346,Westsyde at Bissette,50.76166,-120.34872,0,104346
104348,Westsyde at Porterfield,50.76579,-120.34618,0,104348
104349,Westsyde at Jensen,50.76948,-120.34371,0,104349
104350,Westsyde at Overlander,50.77173,-120.34222,0,104350
104351,Westsyde at Sun Valley,50.77407,-120.34072,0,104351
104352,Harrington at Mountainview,50.77544,-120.33919,0,104352
104354,Overlander at Reemon,50.7744,-120.332,0,104354
104355,Sicamore at Overlander,50.77272,-120.33412,0,104355
104356,Bank at Overlander,50.77124,-120.33983,0,104356
104357,Westsyde at Dever,50.77096,-120.34308,0,104357
104358,Westsyde at Puhallo,50.76925,-120.34422,0,104358
104359,Westsyde at Lyne,50.76676,-120.34589,0,104359
104360,Westsyde at Serle,50.76327,-120.34819,0,104360
104361,Westsyde at Bissette,50.76102,-120.34906,0,104361
104362,Westsyde at Garnet,50.75939,-120.3491,0,104362
104363,Westsyde at Georgeann,50.75643,-120.34998,0,104363
104364,Westsyde at Morven,50.7534,-120.35287,0,104364
104365,Westsyde at Agassiz,50.75109,-120.35509,0,104365
104366,Westsyde at Oak Hills,50.74438,-120.35738,0,104366
104367,Westsyde at Parkview,50.74116,-120.35773,0,104367
104368,Westsyde at Rue Chez Nous,50.73637,-120.35851,0,104368
104369,Westsyde at Woodhaven,50.73114,-120.35909,0,104369
104370,Westsyde at McQueen,50.72866,-120.35917,0,104370
104371,Westsyde at Anderson,50.72405,-120.35907,0,104371
104372,Westsyde at Yates,50.7209,-120.36008,0,104372
104373,Westsyde at Walkem,50.71842,-120.35963,0,104373
104374,Westsyde at Westmount,50.71498,-120.36269,0,104374
104375,Westsyde at Collingwood,50.71353,-120.36455,0,104375
104417,Pacific at Aberdeen,50.63755,-120.37059,0,104417
104418,Pacific 2500 block,50.6348,-120.36785,0,104418
104419,Abbeyglen at Bramble,50.63416,-120.36334,0,104419
104420,Abbeyglen at Regent,50.63656,-120.36125,0,104420
104421,Aberdeen at Abbeyglen,50.63801,-120.36496,0,104421
104422,Van Horne at Aberdeen,50.63862,-120.35882,0,104422
104423,Van Horne at Laurier,50.6402,-120.3591,0,104423
104424,Laurier at Galloway,50.63926,-120.36067,0,104424
104425,Garymede at Laurier,50.6396,-120.3626,0,104425
104426,Garymede at Greystone,50.64235,-120.36573,0,104426
104427,Pacific at Greystone,50.64398,-120.36761,0,104427
104428,Pacific at Ravenwood,50.6461,-120.37273,0,104428
104429,Pacific at Howe,50.64757,-120.37633,0,104429
104555,Summit at Notre Dame,50.66343,-120.34829,0,104555
104556,Summit 1300 block,50.66535,-120.34984,0,104556
104516,Notre Dame at Columbia St W,50.66354,-120.35175,0,104516
104517,Notre Dame at Laval,50.66364,-120.35678,0,104517
104518,Notre Dame at Cemetery,50.66359,-120.35956,0,104518
104519,Notre Dame at 800 block,50.66357,-120.36174,0,104519
104520,Notre Dame at Dalhousie,50.6635,-120.3649,0,104520
104412,Pacific at Pearson,50.64959,-120.3793,0,104412
104413,Pacific at Howe,50.64677,-120.37456,0,104413
104414,Pacific at Ravenwood,50.64562,-120.37171,0,104414
104415,Pacific at Greystone,50.64307,-120.36688,0,104415
104416,Pacific at Links,50.63994,-120.36986,0,104416
104390,4th Ave at Seymour,50.6746,-120.33207,0,104390
104391,4th Ave at Battle,50.6729,-120.33209,0,104391
104483,7th Ave at Columbia,50.67105,-120.32438,0,104483
104484,7th Ave at Pine,50.66942,-120.3244,0,104484
104485,7th Ave at Munro,50.66694,-120.32441,0,104485
104486,6th Ave at Cowan,50.66573,-120.32745,0,104486
104487,Fraser at Tunstall,50.66421,-120.32657,0,104487
104488,Fraser St at Fraser Cres,50.66426,-120.32359,0,104488
104489,Fraser at 9th Ave,50.66424,-120.3187,0,104489
104523,Rogers at Braeview,50.65139,-120.3686,0,104523
104524,Rogers 1250 block,50.65148,-120.37242,0,104524
104525,Rogers at Hugh Allan,50.65174,-120.3749,0,104525
104527,Hugh Allan at Harrison,50.64969,-120.3729,0,104527
104528,Hugh Allan at Howe,50.64871,-120.36735,0,104528
104529,Hugh Allan at Gloaming,50.6486,-120.36336,0,104529
104530,Hugh Allan 880 block,50.64835,-120.36141,0,104530
104531,Sifton Ave at Hector Dr.,50.64627,-120.36027,0,104531
104532,Sifton Ave at Fleming Dr.,50.64381,-120.35567,0,104532
104533,Sifton 2240 block,50.63996,-120.35123,0,104533
104534,Laurier at Sifton,50.63784,-120.34965,0,104534
104535,Laurier at Aberdeen,50.63707,-120.34872,0,104535
104536,Aberdeen at Drummond,50.63749,-120.35316,0,104536
104537,Aberdeen 650 block,50.63788,-120.35631,0,104537
104538,Van Horne at Greystone,50.64328,-120.36389,0,104538
104539,Van Horne at Hector,50.64479,-120.36525,0,104539
104540,Van Horne at Huntleigh,50.64679,-120.36745,0,104540
104541,Van Horne at Howe,50.64782,-120.37134,0,104541
104542,Howe 1130 block,50.64802,-120.36754,0,104542
104543,Hugh Allan at Howe,50.64881,-120.36688,0,104543
104544,Hugh Allan at Harrison,50.64996,-120.37329,0,104544
104545,Rogers at Hugh Allan,50.65167,-120.37468,0,104545
104546,Rogers 1250 block,50.65137,-120.37233,0,104546
104509,Columbia St  at Bluff,50.67301,-120.34579,0,104509
104592,Whistler Dr at Whistler Pl,50.65082,-120.34245,0,104592
104593,Robson at Hollyburn,50.64981,-120.34211,0,104593
104594,Robson 300 block,50.65045,-120.34472,0,104594
104595,Robson at Breakenridge,50.64985,-120.34778,0,104595
104596,Robson at Gladstone Place,50.64944,-120.35395,0,104596
104597,Robson at Gladstone Drive,50.64766,-120.35365,0,104597
104598,Summit at Monteith,50.64641,-120.35144,0,104598
104599,Summit at Hollyburn,50.64686,-120.34769,0,104599
104600,Summit at Tremerton,50.64774,-120.34242,0,104600
104602,Summit at Gleneagles,50.6525,-120.34165,0,104602
104603,Summit at Waddington (NB),50.6549,-120.34437,0,104603
104605,Summit at Freshfield,50.65624,-120.3409,0,104605
104606,Summit at Gordonhorn,50.65926,-120.33976,0,104606
104608,Summit at Springhill,50.6608,-120.34544,0,104608
104641,Southview at Hillcrest,50.71217,-120.37078,0,104641
104642,Linthorpe at Southview,50.71405,-120.3721,0,104642
104643,Linthorpe at Hillcrest,50.71407,-120.37054,0,104643
104644,Batchelor at Norview,50.71735,-120.36943,0,104644
104645,Grasslands at Quail,50.72154,-120.37043,0,104645
104646,Quail at Quails Roost,50.71996,-120.36546,0,104646
104647,Quail Dr at Quail Crt,50.72135,-120.36429,0,104647
151035,Interior Health on 5th,50.66914,-120.33036,0,151035
104696,Oriole at Glenwood,50.67679,-120.27241,0,104696
104697,Valleyview 1970 block,50.67585,-120.27475,0,104697
104767,Battle at 14th Ave,50.67318,-120.30688,0,104767
151039,Tranquille at Poplar,50.69523,-120.36049,0,151039
104843,(-DCOM-)Aberdeen at Abbeyglen,50.63797,-120.36581,0,104843
104601,Summit at Robson,50.6482,-120.33968,0,104601
151009,Stagecoach at Saddleback,50.72919,-120.36856,0,151009
104908,Grasslands at Quayle,50.72193,-120.37006,0,104908
151038,Munro at 8 Avenue,50.66672,-120.32133,0,151038
104826,(-DCOM-)Greystone at Van Horne,50.64284,-120.36381,0,104826
104823,Sifton at Sifton,50.64303,-120.35419,0,104823
151037,South Sahali Elementary,50.65671,-120.33818,0,151037
104789,Summit at Gleneagles,50.65206,-120.34095,0,104789
104786,Summit at Tremerton,50.6477,-120.34379,0,104786
104785,Summit at Hollyburn,50.64714,-120.34739,0,104785
104784,Summit at Robson,50.64642,-120.35359,0,104784
104838,Sifton 2240 block,50.64005,-120.35108,0,104838
151040,Tranquille at 8th,50.69968,-120.36428,0,151040
151041,6th Avenue at Battle,50.67291,-120.32702,0,151041
151006,Saddleback at Stagecoach,50.72968,-120.36864,0,151006
151007,Saddleback at Latigo,50.73256,-120.36864,0,151007
151008,Doubletree Cr at Latigo Dr,50.73214,-120.3669,0,151008
151010,Grasslands at Stagecoach,50.72646,-120.36577,0,151010
151043,12th Street at Barrie Drive,50.69965,-120.37275,0,151043
151042,6 Ave & Columbia,50.6726,-120.3273,0,151042
