stop_id,stop_name,stop_lat,stop_lon,wheelchair_boarding,stop_code
103021,Mission Rec Exchange,49.83712,-119.48059,0,103021
103079,Orchard Park Exchange,49.88008,-119.44231,0,103079
103022,Mission Rec Exchange,49.83693,-119.48062,0,103022
102859,Queensway Exchange,49.88726,-119.49432,0,102859
103077,Orchard Park Exchange,49.87962,-119.44228,0,103077
103072,Orchard Park Exchange,49.88065,-119.44234,0,103072
103193,Rutland Exchange,49.89064,-119.39239,0,103193
103363,Rutland at Gray,49.88848,-119.38698,0,103363
103023,Mission Rec Exchange,49.8366,-119.48062,0,103023
102861,Queensway Exchange,49.88726,-119.49483,0,102861
990000,Kelowna Transit Centre,49.88611,-119.44785,0,990000
103069,Orchard Park Exchange,49.88025,-119.44247,0,103069
103430,McCurdy at Craig,49.90185,-119.37751,0,103430
140005,Westbank Exchange,49.82934,-119.63103,0,140005
102855,Queensway Exchange,49.88738,-119.49449,0,102855
102856,Queensway Exchange,49.88739,-119.49419,0,102856
103327,Fitzpatrick at Findlay,49.90721,-119.39684,0,103327
140103,UBCO Exchange,49.93935,-119.39373,0,140103
140101,UBCO Exchange,49.93943,-119.39406,0,140101
103030,Okanagan College Exchange,49.86105,-119.47988,0,103030
140098,UBCO Exchange,49.93991,-119.39456,0,140098
102860,Queensway Exchange,49.88726,-119.4946,0,102860
102854,Queensway Exchange,49.88738,-119.49474,0,102854
140006,Westbank Exchange,49.82876,-119.63088,0,140006
102853,Queensway Exchange,49.88742,-119.4959,0,102853
102862,Queensway Exchange,49.88742,-119.49615,0,102862
140102,UBCO Exchange,49.93938,-119.39387,0,140102
140010,Boucherie Mountain Exchange,49.86154,-119.58522,0,140010
103472,Main at Grant,50.0273,-119.40354,0,103472
140099,UBCO Exchange,49.93929,-119.39492,0,140099
140011,Boucherie Mountain Exchange,49.86139,-119.58522,0,140011
103016,Pandosy Exchange,49.8604,-119.49115,0,103016
140081,Shoreline at Stillwater,50.06856,-119.42013,0,140081
103070,Orchard Park Exchange,49.88041,-119.44248,0,103070
103061,Harvey at Cooper - Cooper Station,49.88202,-119.44467,0,103061
140004,Westbank Exchange,49.82865,-119.63102,0,140004
103054,KLO at Saint Amand,49.86108,-119.4663,0,103054
140104,UBCO Exchange,49.93999,-119.39437,0,140104
140009,Boucherie Mountain Exchange,49.86198,-119.58509,0,140009
103067,Harvey at Cooper - Cooper Station,49.88176,-119.44216,0,103067
103075,Orchard Park Exchange,49.88037,-119.44234,0,103075
103071,Orchard Park Exchange,49.88056,-119.44248,0,103071
103378,Hwy 33 at Sadler,49.88894,-119.38603,0,103378
140148,Rutland Exchange,49.89065,-119.39187,0,140148
140149,Rutland Exchange,49.89065,-119.39082,0,140149
140100,UBCO Exchange,49.93948,-119.39427,0,140100
102857,Queensway Exchange,49.88736,-119.49393,0,102857
140151,Rutland Exchange,49.89056,-119.3918,0,140151
103512,Cooper at Harvey,49.87953,-119.44339,0,103512
140165,Boucherie Exchange,49.86222,-119.58388,0,140165
140214,Westbank Exchange Bay E,49.82962,-119.63043,0,140214
103041,Glenmore at Summit,49.90187,-119.45352,0,103041
103028,Okanagan College Exchange,49.86127,-119.47932,0,103028
140023,Gordon at Laurier,49.88237,-119.47716,0,140023
102868,Water at Leon,49.88467,-119.49665,0,102868
102881,Pandosy at Buckland,49.88166,-119.4951,0,102881
102896,Pandosy at Sutherland,49.87905,-119.49294,0,102896
102914,Pandosy at Cadder,49.87589,-119.4913,0,102914
102928,Kelowna General Hospital,49.87391,-119.49134,0,102928
102952,Pandosy at Morrison,49.86934,-119.49134,0,102952
102961,Pandosy at Patterson,49.86803,-119.49133,0,102961
102976,Pandosy at Raymer,49.86571,-119.49129,0,102976
102982,Pandosy at Groves,49.86339,-119.49129,0,102982
140244,K.L.O. at Richter,49.86196,-119.48878,0,140244
103020,KLO at Casorso,49.86093,-119.48492,0,103020
102999,Lakeshore at Cedar,49.86167,-119.49131,0,102999
103025,Lakeshore at Pandosy Exchange,49.86026,-119.49128,0,103025
103062,Lakeshore at Swordy,49.85481,-119.49002,0,103062
103093,Lakeshore at Bechard,49.85151,-119.48697,0,103093
103119,Lakeshore at Barrera,49.84868,-119.48634,0,103119
103139,Lakeshore at Cook,49.84517,-119.48784,0,103139
103152,Lakeshore at Truswell,49.84381,-119.48795,0,103152
103185,Lakeshore at Bluebird,49.84032,-119.48865,0,103185
103342,4069 Block Lakeshore,49.83785,-119.48796,0,103342
103801,Lequime Road,49.8356,-119.48437,0,103801
103800,Lequime Road,49.83559,-119.48483,0,103800
103214,Lakeshore at Lequime,49.83651,-119.48721,0,103214
103188,Lakeshore at Lexington,49.84046,-119.48847,0,103188
103151,Lakeshore at Truswell,49.84396,-119.48769,0,103151
103133,Lakeshore at Cook,49.84624,-119.48736,0,103133
103113,Lakeshore at Barrera,49.84894,-119.48617,0,103113
103091,Lakeshore at Bechard,49.85151,-119.48683,0,103091
140243,Lakeshore at Richter,49.85482,-119.48989,0,140243
103044,Lakeshore at Lanfranco,49.85714,-119.49113,0,103044
102997,KLO at Lakeshore,49.86196,-119.49084,0,102997
102995,Pandosy at KLO,49.86229,-119.49117,0,102995
102984,Pandosy at Groves,49.86394,-119.49115,0,102984
140053,Pandosy at Osprey,49.86579,-119.49115,0,140053
102956,Pandosy at Patterson,49.8686,-119.49115,0,102956
102930,Kelowna General Hospital,49.87353,-119.49118,0,102930
102910,Pandosy at Cadder,49.87673,-119.49122,0,102910
102892,Pandosy at Sutherland,49.8797,-119.49357,0,102892
102883,Pandosy at Buckland,49.88135,-119.49494,0,102883
102869,Water at Leon,49.8842,-119.49635,0,102869
102865,Water at Doyle,49.88923,-119.49651,0,102865
102870,Water at Cawston,49.89209,-119.49652,0,102870
140233,Ellis at Clement,49.89404,-119.49347,0,140233
102888,Ellis at Industrial,49.89581,-119.49349,0,102888
102901,Ellis at Recreation,49.89799,-119.49346,0,102901
102911,Ellis at Roanoke,49.89957,-119.49347,0,102911
102919,Ellis at Okanagan,49.90105,-119.49342,0,102919
102924,Ellis at Oxford,49.90187,-119.49319,0,102924
102932,Cambridge at Ellis,49.9035,-119.4924,0,102932
102934,Cambridge at Kingsway,49.90348,-119.49063,0,102934
102935,Richter at Cambridge,49.90303,-119.48852,0,102935
102922,Richter at Okanagan,49.90119,-119.48853,0,102922
102913,Richter at Bay,49.89928,-119.48853,0,102913
102895,Richter at Gaston,49.89568,-119.48854,0,102895
102885,Richter at Clement,49.89321,-119.48854,0,102885
102879,Richter at Wilson,49.89102,-119.48855,0,102879
102875,Richter at Lawrence,49.88563,-119.48856,0,102875
103076,Enterprise at Cooper,49.88322,-119.44167,0,103076
103102,Dilworth at Enterprise,49.88451,-119.43764,0,103102
103099,Dilworth at Leckie,49.887,-119.43767,0,103099
103123,Dilworth at Omineca,49.89152,-119.43264,0,103123
103147,Dilworth at Cascade,49.89277,-119.42812,0,103147
103172,970 Block Dilworth,49.89653,-119.426,0,103172
103170,Summit at Dilworth,49.8988,-119.4268,0,103170
103143,Summit at Purcell,49.89963,-119.43066,0,103143
103129,Summit at Lillooet,49.89936,-119.43308,0,103129
103111,Summit at Skeena,49.8986,-119.43643,0,103111
103089,Summit at Lillooet,49.89569,-119.43997,0,103089
103083,Summit at Denali,49.89841,-119.44231,0,103083
103052,Summit at Valley,49.9012,-119.45024,0,103052
103051,Glenmore at Glenmeadows,49.904,-119.45297,0,103051
103090,Yates at Glenmore,49.90895,-119.44894,0,103090
103098,Yates at Valley,49.90866,-119.44724,0,103098
103053,Summit at Valley,49.90111,-119.45021,0,103053
103082,Summit at Denali,49.89883,-119.44257,0,103082
103095,Summit at Chilcotin,49.89592,-119.43912,0,103095
103117,Summit at Skeena,49.89885,-119.43561,0,103117
103128,Summit at Lillooet,49.89927,-119.43362,0,103128
103148,Summit at Nahanni,49.89991,-119.4301,0,103148
103168,Summit at Dilworth,49.89871,-119.4268,0,103168
103166,960 Block Dilworth,49.89692,-119.42629,0,103166
103145,Dilworth at Cascade,49.89286,-119.42815,0,103145
103118,Dilworth at Omineca,49.8912,-119.43322,0,103118
103096,Dilworth at Leckie,49.88699,-119.43781,0,103096
103101,Dilworth at Enterprise,49.88438,-119.43778,0,103101
103092,Enterprise at Dilworth,49.88331,-119.43862,0,103092
140047,Cadder at Pandosy,49.87632,-119.49074,0,140047
140043,Cadder at Richter,49.87633,-119.48765,0,140043
102929,Springfield at Ethel,49.87645,-119.48061,0,102929
102941,Springfield at Gordon,49.87679,-119.47658,0,102941
102954,Springfield at Wilkinson,49.8769,-119.47106,0,102954
102979,Springfield at Burtch,49.87673,-119.46501,0,102979
102990,Springfield at Dayton,49.87672,-119.46062,0,102990
103004,Springfield at Kirschner,49.87677,-119.45797,0,103004
103033,Springfield at Spall,49.87716,-119.45386,0,103033
103056,Springfield at Barlee,49.87716,-119.44781,0,103056
103121,Baron at Underhill,49.87958,-119.43414,0,103121
103144,Baron at Leckie,49.88246,-119.42857,0,103144
103169,1900 Block Baron,49.8837,-119.42518,0,103169
103186,Baron at Spedding,49.88635,-119.42179,0,103186
103204,Ziprick at Terai,49.88805,-119.4175,0,103204
103222,Hwy 33 at Taylor,49.88903,-119.41316,0,103222
103245,Hwy 33 at Gerstmar,49.88904,-119.40886,0,103245
103264,Hwy 33 at Davie,49.88903,-119.40539,0,103264
103278,Hwy 33 at Barber,49.88902,-119.4018,0,103278
103296,Hwy 33 at Hollywood,49.88896,-119.39876,0,103296
103312,Hwy 33 at Aurora,49.88894,-119.39593,0,103312
140152,Dougall at Hwy 33,49.88942,-119.39279,0,140152
140150,Rutland Exchange,49.89055,-119.39235,0,140150
140164,Shepherd at Roxby,49.89054,-119.38836,0,140164
103373,Rutland at Mugford,49.89296,-119.3868,0,103373
103376,Rutland at Briarwood,49.89433,-119.38683,0,103376
140216,Rutland at Bach,49.89656,-119.3868,0,140216
103384,Rutland at McCurdy,49.90151,-119.38674,0,103384
102863,Rutland at Sumac,49.90388,-119.38677,0,102863
102998,Rutland at Klassen,49.90721,-119.38669,0,102998
140246,Rutland at Rains,49.91049,-119.38661,0,140246
140112,Rutland at Commercial,49.91558,-119.3859,0,140112
140109,Acland at Old Vernon,49.91886,-119.38392,0,140109
140108,Acland at Penno,49.92159,-119.38393,0,140108
140106,Edwards at Hwy 97,49.92447,-119.3858,0,140106
102877,Bernard at Richter,49.88628,-119.48818,0,102877
102893,Bernard at Ethel,49.88627,-119.48235,0,102893
102902,Bernard at Graham,49.88631,-119.47974,0,102902
102915,Bernard at Gordon,49.88625,-119.47605,0,102915
102923,Bernard at Danjou,49.88631,-119.47413,0,102923
102936,Bernard at Richmond,49.88628,-119.47099,0,102936
140056,Bernard at Elm,49.88626,-119.4658,0,140056
102974,Bernard at Burtch,49.88654,-119.46173,0,102974
102728,Spall at Bernard,49.88798,-119.45463,0,102728
103009,Enterprise at Spall,49.88407,-119.45354,0,103009
103036,Enterprise at Enterprise Court,49.88316,-119.45031,0,103036
103050,Enterprise at Hardy,49.88325,-119.44694,0,103050
103058,Enterprise at Cooper,49.88324,-119.44458,0,103058
103073,Orchard Park Exchange,49.8805,-119.44234,0,103073
103105,Enterprise at Dilworth,49.88322,-119.43689,0,103105
103122,Enterprise at Leckie,49.88404,-119.43275,0,103122
103127,Enterprise at Hunter,49.88592,-119.43166,0,103127
140239,Enterprise at Banks,49.88925,-119.42682,0,140239
103002,Hwy 33 at Enterprise,49.8907,-119.42352,0,103002
103354,Leathead at Ford,49.8956,-119.38807,0,103354
103344,Leathead at Pinetree,49.89539,-119.39024,0,103344
103322,Leathead at Tartan,49.89539,-119.39396,0,103322
103287,Leathead at Franklyn,49.89543,-119.40033,0,103287
103288,Franklyn at Pearson,49.89809,-119.40092,0,103288
103292,Franklyn at McCurdy,49.90087,-119.40091,0,103292
103283,McCurdy at Mayfair,49.90129,-119.40309,0,103283
103081,McCurdy at Alsgard,49.90125,-119.40612,0,103081
103300,Finns at Fitzpatrick,49.90654,-119.40249,0,103300
103343,Fitzpatrick at Chichester,49.9072,-119.39401,0,103343
103360,Fitzpatrick at Stafford,49.9072,-119.39121,0,103360
103387,Fitzpatrick at Aldon,49.90719,-119.38815,0,103387
103385,Rutland at Sumac,49.90334,-119.38691,0,103385
103382,Rutland at McCurdy,49.90065,-119.38688,0,103382
103380,Rutland at Hartman,49.89945,-119.38689,0,103380
103377,Rutland at Leathead,49.89668,-119.38696,0,103377
103370,Rutland at McIntosh,49.89274,-119.38697,0,103370
103365,Rutland at Shepherd,49.8909,-119.38698,0,103365
103321,Hwy 33 at Dougall,49.88912,-119.39428,0,103321
103297,Hwy 33 at Hollywood,49.88914,-119.39897,0,103297
103274,Hwy 33 at Franklyn,49.88911,-119.40301,0,103274
103260,Hwy 33 at Bryden,49.88912,-119.40635,0,103260
103240,Hwy 33 at Gerstmar,49.88913,-119.41001,0,103240
103221,Hwy 33 at Nickel,49.88912,-119.4134,0,103221
103165,Enterprise at Powick,49.89028,-119.42541,0,103165
103141,Enterprise at Banks,49.88868,-119.42863,0,103141
103126,Enterprise at Leckie,49.88561,-119.43186,0,103126
103060,Enterprise at Cooper,49.88333,-119.44438,0,103060
103046,Enterprise at Hardy,49.88332,-119.44811,0,103046
103015,Enterprise at Spall,49.88415,-119.4529,0,103015
102991,Bernard at Dilworth Cresent,49.8884,-119.45621,0,102991
102975,Bernard at Cherry Cresent,49.887,-119.46121,0,102975
102964,Bernard at Noble,49.88634,-119.46366,0,102964
102953,Bernard at Highland,49.88635,-119.46602,0,102953
102933,Bernard at Richmond,49.88637,-119.47123,0,102933
102921,Bernard at Danjou,49.88636,-119.47432,0,102921
102909,Bernard at Gordon,49.88643,-119.478,0,102909
102900,Bernard at Graham,49.88638,-119.48019,0,102900
102889,Bernard at Ethel,49.88636,-119.48312,0,102889
102874,Bernard at Bertram,49.88637,-119.48987,0,102874
103416,McCurdy at Friesen,49.90163,-119.38037,0,103416
103396,McCurdy at Keyes,49.90123,-119.38454,0,103396
102886,Richter at Dehart,49.88192,-119.48865,0,102886
102899,Sutherland at Richter,49.87981,-119.48813,0,102899
102912,Sutherland at Ethel,49.87979,-119.48227,0,102912
102920,Sutherland at Lequime,49.87978,-119.47865,0,102920
102931,Sutherland at Gordon,49.88017,-119.47525,0,102931
102938,Sutherland at Capri,49.88017,-119.47325,0,102938
102945,Sutherland at Pacific,49.88017,-119.4713,0,102945
102957,Sutherland at Chandler,49.88024,-119.46766,0,102957
102970,Burtch at Dickson,49.87844,-119.46587,0,102970
103086,Springfield at Cooper,49.8771,-119.44164,0,103086
103138,Springfield at Durnin,49.87814,-119.43089,0,103138
103189,Springfield at Parkview,49.88042,-119.42189,0,103189
103205,Springfield at Ziprick,49.88036,-119.41841,0,103205
103235,Springfield at Gerstmar,49.87881,-119.41188,0,103235
103250,Gerstmar at Thompson,49.87903,-119.40941,0,103250
103252,Graham at Gerstmar,49.88176,-119.40874,0,103252
103277,Graham at Matt,49.88177,-119.40282,0,103277
103289,Hollydell at Stirling,49.88276,-119.39981,0,103289
103303,Hollywood at Perry,49.88084,-119.3983,0,103303
103307,Hollywood at Quigley,49.87754,-119.39834,0,103307
103309,Hollywood at Springfield,49.87562,-119.39835,0,103309
103313,Springfield at Monterey,49.87438,-119.39757,0,103313
103334,Springfield at Hollywood,49.87437,-119.39381,0,103334
103357,Springfield at Neptune,49.87771,-119.38854,0,103357
103367,Rutland at Jupiter,49.88005,-119.38759,0,103367
103372,Rutland at Belgo,49.88213,-119.38689,0,103372
103383,Husch at Scarboro,49.88365,-119.38526,0,103383
103405,Husch at Molnar,49.88365,-119.38152,0,103405
103411,Molnar at Husch,49.88419,-119.37963,0,103411
103412,Molnar at Holbrook,49.88578,-119.37969,0,103412
103410,Molnar at Milton,49.88754,-119.37968,0,103410
103421,Muir at McKenzie,49.88973,-119.37732,0,103421
103428,Merrifield at Mugford,49.89233,-119.37614,0,103428
103426,Hardie at Hemlock,49.8949,-119.37682,0,103426
103429,Craig at Hartman,49.89947,-119.37696,0,103429
103361,Rutland at Robson,49.88676,-119.38697,0,103361
103364,Rutland at Holbrook,49.88519,-119.38699,0,103364
103369,Rutland at Benchview,49.8829,-119.38703,0,103369
103366,Rutland at Jupiter,49.87934,-119.38775,0,103366
103346,Springfield at Neptune,49.87758,-119.39045,0,103346
103331,Springfield at Hollywood,49.87446,-119.3941,0,103331
103310,Hollywood at Springfield,49.87517,-119.39822,0,103310
103308,Hollywood at Juniper,49.87776,-119.3982,0,103308
103304,Hollywood at Perry,49.88117,-119.39815,0,103304
103291,Hollydell at Stirling,49.88282,-119.39969,0,103291
103271,Graham at Matt,49.88186,-119.40343,0,103271
103253,Graham at Irma,49.88185,-119.40857,0,103253
103246,Gerstmar at Thompson,49.87904,-119.40955,0,103246
103227,Springfield at Graham,49.87976,-119.41336,0,103227
103202,Springfield at Ziprick,49.88061,-119.41854,0,103202
103190,Springfield at Parkview,49.88061,-119.4216,0,103190
103156,Springfield at Leckie,49.87964,-119.42761,0,103156
103130,Springfield at Durnin,49.87779,-119.43249,0,103130
103097,Springfield at Benvoulin,49.87734,-119.44014,0,103097
103057,Springfield at Barlee,49.87738,-119.44737,0,103057
103014,Springfield at Spall,49.8772,-119.45597,0,103014
102996,Springfield at Kirschner,49.87694,-119.45876,0,102996
102986,Springfield at Dayton,49.87693,-119.46171,0,102986
102972,Burtch at Dickson,49.8782,-119.46574,0,102972
102955,Sutherland at Chandler,49.88033,-119.46761,0,102955
102944,Sutherland at Pacific,49.88025,-119.47239,0,102944
102927,Sutherland at Gordon,49.88026,-119.47594,0,102927
102917,Sutherland at Bowes,49.87987,-119.48026,0,102917
102906,Sutherland at Ethel,49.87987,-119.4831,0,102906
102897,Richter at Sutherland,49.88004,-119.48842,0,102897
102887,Richter at Dehart,49.8822,-119.48838,0,102887
140055,KLO at Benvoulin,49.86088,-119.45507,0,140055
103114,KLO at Como,49.86091,-119.45055,0,103114
103149,KLO at Spiers,49.8605,-119.44237,0,103149
103232,KLO at McCulloch,49.85955,-119.42419,0,103232
103285,McCulloch at Hart,49.85346,-119.41668,0,103285
103324,McCulloch at Reekie,49.85166,-119.4099,0,103324
103348,3280 Block McCulloch,49.84643,-119.40986,0,103348
103406,McCulloch at June Springs,49.8408,-119.40699,0,103406
103420,3530 Block McCulloch,49.84037,-119.40298,0,103420
103436,McCulloch at Spaarpak,49.84003,-119.40003,0,103436
103458,McCulloch at McClain,49.83795,-119.39291,0,103458
103489,McCulloch at Gallaghers Blvd,49.83796,-119.38226,0,103489
103461,McCulloch at Lakevale,49.83774,-119.39156,0,103461
103433,McCulloch at Spaarpak,49.8401,-119.39967,0,103433
103419,3520 Block McCulloch,49.84053,-119.40368,0,103419
103399,McCulloch at June Springs,49.84102,-119.4083,0,103399
103349,3280 Block McCulloch,49.84644,-119.40976,0,103349
103323,McCulloch at Reekie,49.85199,-119.40978,0,103323
103286,McCulloch at Hart,49.85344,-119.41593,0,103286
103231,KLO at McCulloch,49.85971,-119.42417,0,103231
103146,KLO at Spiers,49.86056,-119.44227,0,103146
103116,KLO at Como,49.86104,-119.44997,0,103116
103414,Hwy 33 at Molnar,49.88894,-119.37879,0,103414
103446,Hwy 33 at Toovey,49.8779,-119.36902,0,103446
103490,Hwy 33 at Hume,49.86878,-119.36109,0,103490
103531,Loseth at Lynrick,49.8675,-119.35471,0,103531
103515,Loseth at Autumn,49.86608,-119.35416,0,103515
103524,Sunrise at Loseth,49.86218,-119.35772,0,103524
103539,Sunrise at Lynrick,49.86315,-119.35367,0,103539
103550,Lynrick at Autumn,49.86528,-119.35062,0,103550
103198,Lynrick at Loseth,49.86761,-119.35336,0,103198
103538,Hwy 33 at Oswell,49.86825,-119.35058,0,103538
103557,Black Mountain at Begley,49.86937,-119.34723,0,103557
103554,Black Mountain at Linda,49.8708,-119.34797,0,103554
103153,Black Mountain at Large,49.87201,-119.34848,0,103153
103526,Large at St Clare,49.87188,-119.35377,0,103526
103521,Loseth at Feedham,49.86921,-119.3554,0,103521
103501,Hwy 33 at Traut,49.86906,-119.36299,0,103501
103448,Hwy 33 at Toovey,49.87883,-119.36932,0,103448
103477,Hwy 33 at Langford,49.88913,-119.37944,0,103477
103482,Hwy 33 at Sadler,49.8891,-119.38583,0,103482
103192,Hwy 33 at Rutland,49.8891,-119.38773,0,103192
140071,Hwy 97 at Butt - Butt Road Station,49.83717,-119.6142,0,140071
140007,Boucherie Mountain Exchange,49.86207,-119.58528,0,140007
140073,Hwy 97 at Westlake - Hudson Station,49.86426,-119.56286,0,140073
103745,Hwy 97 at Sneena - Westside Road Stn,49.88084,-119.535,0,103745
140049,Harvey at Richter - Richter Station,49.88354,-119.49035,0,140049
140003,Harvey at Gordon - Gordon Station,49.88333,-119.47533,0,140003
103174,Hwy 97 at Banks - Banks Station,49.88688,-119.42413,0,103174
103263,Hwy 97 at McCurdy - McCurdy Station,49.90245,-119.40752,0,103263
140114,Hwy 97 at Old Vernon - Sexsmith Stn,49.91939,-119.38664,0,140114
140113,Hwy 97 at Sexsmith - Sexsmith Station,49.91696,-119.38904,0,140113
103256,Hwy 97 at McCurdy - McCurdy Station,49.90021,-119.41008,0,103256
103049,Hwy 97 at Banks - Banks Station,49.88563,-119.42664,0,103049
102989,Harvey at Kirschner - Parkinson Station,49.88204,-119.45807,0,102989
140002,Harvey at Gordon - Gordon Station,49.88373,-119.4787,0,140002
140000,Harvey at Bertram - Richter Station,49.88379,-119.49144,0,140000
103744,Hwy 97 at Westside Rd - Westside Rd Stn,49.88178,-119.53628,0,103744
140074,Hwy 97 at Westlake - Hudson Station,49.86317,-119.56654,0,140074
140008,Boucherie Mountain Exchange,49.86209,-119.58489,0,140008
140072,Hwy 97 at Butt - Butt Road Station,49.83532,-119.61713,0,140072
103802,Lakeshore at Old Meadows,49.83254,-119.4873,0,103802
103803,Lakeshore at Simeon,49.8284,-119.48883,0,103803
103804,Lakeshore at Willms,49.82605,-119.48884,0,103804
103319,Lakeshore at Dehart,49.82253,-119.48892,0,103319
103340,Lakeshore at Eldorado,49.82059,-119.49122,0,103340
103355,Lakeshore at Keith,49.81814,-119.49415,0,103355
103432,Chute Lake at Barnaby,49.8097,-119.49825,0,103432
103445,Chute Lake at Winery,49.80597,-119.49958,0,103445
103806,Chute Lake at Chute Lake Cresent,49.80179,-119.49816,0,103806
103808,Chute Lake at South Crest,49.79838,-119.4991,0,103808
103810,5160 Block Chute Lake,49.7957,-119.5026,0,103810
103811,Chute Lake at Lark,49.79539,-119.50863,0,103811
103520,Quilchena at Providence,49.79664,-119.51164,0,103520
103523,Quilchena at Thalia,49.79623,-119.51483,0,103523
103533,370 Block Quilchena,49.79505,-119.51869,0,103533
103540,Quilchena at Raven,49.79397,-119.52096,0,103540
103562,Quilchena at Providence,49.79129,-119.52185,0,103562
103814,Chute Lake at Farron,49.78948,-119.51741,0,103814
103813,Chute Lake at Lakepointe,49.79132,-119.51333,0,103813
103812,Chute Lake at Hedeman,49.79458,-119.51064,0,103812
103522,5150 Block Chute Lake,49.79561,-119.50219,0,103522
103809,Chute Lake at South Crest,49.79886,-119.49889,0,103809
103807,Chute Lake at Chute Lake Cresent,49.80189,-119.49785,0,103807
103805,Chute Lake at Barnaby,49.80994,-119.49782,0,103805
103347,Lakeshore at Keith,49.81881,-119.49314,0,103347
103337,Lakeshore at Eldorado,49.82061,-119.49098,0,103337
103317,Lakeshore at Dehart,49.82219,-119.48899,0,103317
103290,Lakeshore at Willms,49.82597,-119.4887,0,103290
103272,Lakeshore at Simeon,49.82828,-119.48869,0,103272
103248,Lakeshore at Old Meadows,49.83198,-119.48779,0,103248
103257,Gordon at Welke,49.83149,-119.48334,0,103257
103817,Gordon at Young,49.82844,-119.48326,0,103817
103305,Gordon at Balsam,49.82502,-119.48329,0,103305
103316,Dehart at Gordon,49.823,-119.48252,0,103316
103298,Dehart at Bartholomew,49.82648,-119.47621,0,103298
103295,Crawford at Dehart,49.82873,-119.46431,0,103295
103368,1230 Block Crawford,49.82022,-119.4669,0,103368
103401,Westridge at Crawford,49.81736,-119.46382,0,103401
103423,Westridge at Blueridge,49.81368,-119.46525,0,103423
103441,Westridge at Appleridge,49.81085,-119.46306,0,103441
103444,Westridge at Westridge Court,49.80905,-119.46136,0,103444
103464,Parkridge at Westridge,49.80764,-119.45594,0,103464
103470,Parkridge at Woodridge,49.80949,-119.45623,0,103470
103440,Parkridge at Appleridge,49.81226,-119.45691,0,103440
103424,Parkridge at Mission Ridge,49.81499,-119.45803,0,103424
104914,1240 Block Crawford,49.82041,-119.4668,0,104914
103294,Crawford at Dehart,49.82868,-119.46415,0,103294
103293,Dehart at Bartholomew,49.82657,-119.47627,0,103293
103818,Gordon at Tozer,49.82426,-119.48314,0,103818
103816,Gordon at Young,49.82893,-119.48313,0,103816
103815,Gordon at Old Meadows,49.8324,-119.48308,0,103815
103325,Gordon at Dehart,49.82218,-119.48322,0,103325
103821,Gordon at Raymer,49.81886,-119.48325,0,103821
103825,Gordon at McClure,49.81536,-119.48323,0,103825
103826,Gordon at Buck,49.81367,-119.48318,0,103826
103827,Gordon at Paret,49.81094,-119.47795,0,103827
103829,870 Block Gordon,49.80969,-119.47163,0,103829
103176,Gordon at Steele,49.80585,-119.47308,0,103176
103177,Gordon at Powerline Park,49.80533,-119.47633,0,103177
103187,Gordon at Frost,49.80374,-119.47688,0,103187
103191,South Ridge at Frost,49.80337,-119.48271,0,103191
103451,Arbor View at Windsong,49.80578,-119.48125,0,103451
103833,Arbor View at Windsong,49.80614,-119.4774,0,103833
140161,Arborview at Steele,49.80656,-119.47267,0,140161
103439,870 Block Gordon,49.80993,-119.47199,0,103439
103828,Gordon at Paret,49.81106,-119.47778,0,103828
103408,Gordon at Buck,49.81364,-119.48294,0,103408
103824,Gordon at McClure,49.81612,-119.48299,0,103824
103820,Gordon at Raymer,49.81971,-119.48299,0,103820
102884,Leon at Richter,49.88445,-119.48666,0,102884
102891,Leon at Ethel,49.88444,-119.48386,0,102891
102907,Bernard at Gordon,49.88626,-119.47807,0,102907
102916,Lawrence at Gordon,49.88526,-119.47631,0,102916
102925,Lawrence at Kelglen,49.88523,-119.47319,0,102925
102937,Lawrence at Richmond,49.88523,-119.47072,0,102937
102951,Lawrence at Alta Vista,49.88522,-119.46664,0,102951
102971,Lawrence at Burtch,49.8844,-119.46287,0,102971
102962,Burtch at Kelglen,49.88298,-119.46507,0,102962
103011,Spall at Windsor,49.88042,-119.4547,0,103011
103018,Spall at Kent,49.87864,-119.45469,0,103018
103024,Spall at Kent,49.87888,-119.45447,0,103024
103012,Spall at Windsor,49.88087,-119.45438,0,103012
102963,Burtch at Kelglen,49.88286,-119.46508,0,102963
102969,Lawrence at Burtch,49.88455,-119.46294,0,102969
102948,Lawrence at Lakeview,49.88532,-119.46744,0,102948
102942,Lawrence at Richmond,49.8853,-119.47019,0,102942
102926,Lawrence at Kelglen,49.88532,-119.47289,0,102926
102918,Lawrence at Gordon,49.88534,-119.47589,0,102918
102890,Leon at Ethel,49.88453,-119.48369,0,102890
102882,Leon at Richter,49.88454,-119.4869,0,102882
140044,Ellis at Doyle,49.89038,-119.49347,0,140044
140018,Ellis at Clement,49.89318,-119.49347,0,140018
140019,Clement at Richter,49.89353,-119.48794,0,140019
140020,Clement at Ethel,49.89351,-119.4823,0,140020
140021,Gordon at Coronation,49.89238,-119.47706,0,140021
140022,Gordon at Bernard,49.88678,-119.47713,0,140022
140237,Gordon at Sutherland,49.87937,-119.47727,0,140237
102939,Gordon at Springfield,49.87646,-119.47723,0,102939
102958,Gordon at Guisachan,49.87245,-119.47608,0,102958
102978,Gordon at Cameron,49.86989,-119.47471,0,102978
103006,Gordon at Raymer,49.86456,-119.47437,0,103006
140024,Gordon at KLO,49.86022,-119.47447,0,140024
140025,Gordon at Lanfranco,49.85706,-119.47451,0,140025
140026,Gordon at Casorso,49.85055,-119.47694,0,140026
140027,Gordon at Cook,49.84517,-119.48059,0,140027
140012,Gordon at Lexington,49.83934,-119.48239,0,140012
140028,Gordon at Lexington,49.83991,-119.48209,0,140028
140029,Gordon at Cook,49.84572,-119.47987,0,140029
140030,Gordon at Casorso,49.85125,-119.47618,0,140030
140031,Gordon at Bothe,49.85768,-119.4742,0,140031
140032,Gordon at KLO,49.86018,-119.47416,0,140032
140033,Gordon at Raymer,49.86533,-119.47407,0,140033
140034,Gordon at Cameron,49.87056,-119.47472,0,140034
140035,Gordon at Guisachan,49.87318,-119.47612,0,140035
140036,Gordon at Springfield,49.87724,-119.47694,0,140036
140236,Gordon at Sutherland,49.88044,-119.47687,0,140236
140037,Gordon at Harvey,49.88259,-119.47687,0,140037
140038,Gordon at Bernard,49.88689,-119.47684,0,140038
140039,Gordon at Cawston,49.89185,-119.47692,0,140039
140040,Clement at Ethel,49.89359,-119.4833,0,140040
140041,Clement at Richter,49.89365,-119.48933,0,140041
140042,Ellis at Clement,49.89315,-119.49361,0,140042
140057,1300 Block Ellis,49.88954,-119.49363,0,140057
103660,Berry at Bottom Wood Lake,50.02947,-119.40276,0,103660
103657,Hwy 97 at Pollard,50.02626,-119.40528,0,103657
103655,Hwy 97 at Okanagan Centre,50.02177,-119.40668,0,103655
103652,Hwy 97 at Commonwealth,50.00711,-119.40312,0,103652
140238,Innovation at Quail Ridge,49.95172,-119.38978,0,140238
140160,Innovation at University Way,49.94336,-119.39014,0,140160
103201,Ziprick at Terai,49.88831,-119.41764,0,103201
103184,Baron at Spedding,49.88631,-119.42205,0,103184
103171,Baron at Banks,49.88431,-119.42479,0,103171
103142,Baron at Leckie,49.88249,-119.42873,0,103142
103125,Baron at Underhill,49.87964,-119.43327,0,103125
103108,Dilworth at Baron,49.8789,-119.43703,0,103108
102973,Springfield at Burtch,49.87707,-119.46632,0,102973
102950,Springfield at Wilkinson,49.8771,-119.47202,0,102950
140048,Springfield at Gordon,49.87687,-119.47815,0,140048
140045,Cadder at Ethel,49.8764,-119.48314,0,140045
140046,Cadder at Richter,49.87642,-119.48892,0,140046
102866,Doyle at St Paul,49.88895,-119.4915,0,102866
102880,Richter at Fuller,49.89061,-119.48841,0,102880
102898,Cawston at Ethel,49.89159,-119.48234,0,102898
102908,Graham at Clement,49.89322,-119.47981,0,102908
140051,Clement at Gordon,49.8934,-119.47588,0,140051
103029,Clement at Cerise,49.89239,-119.47059,0,103029
102960,Clifton at Hartwick,49.89365,-119.4657,0,102960
102966,Clifton at Lambert,49.89544,-119.46565,0,102966
102977,High at Glengarry,49.89773,-119.46413,0,102977
102988,High at Tronson,49.89915,-119.46132,0,102988
103010,High at Kennedy,49.90041,-119.45754,0,103010
103087,Glenmore at Yates,49.90967,-119.45011,0,103087
103107,Glenmore at Watson,49.91165,-119.44873,0,103107
103136,Glenmore at Kane,49.91616,-119.44563,0,103136
103159,Glenmore at Dallas,49.91841,-119.44403,0,103159
140131,Glenmore at Cross,49.92337,-119.43833,0,140131
140132,Glenmore at Union,49.92765,-119.43474,0,140132
140134,Glenmore at Scenic,49.93297,-119.43329,0,140134
140242,Glenmore at Begbie,49.94145,-119.43094,0,140242
140136,John Hindle at Glenmore,49.94691,-119.42356,0,140136
140162,John Hindle at  Landfill,49.94286,-119.40868,0,140162
140138,John Hindle at Academy Way,49.93838,-119.40154,0,140138
140139,John Hindle at Upper Campus Way,49.93867,-119.40171,0,140139
140137,John Hindle at Glenmore,49.94758,-119.42474,0,140137
140241,Glenmore at Begbie,49.9414,-119.43123,0,140241
140135,Glenmore at Scenic,49.93288,-119.43344,0,140135
140133,Glenmore at Union,49.9263,-119.43606,0,140133
103104,Glenmore at Cross,49.9224,-119.43994,0,103104
103154,Glenmore at Dallas,49.91798,-119.44468,0,103154
103131,Glenmore at Ballou,49.91564,-119.44633,0,103131
103103,Glenmore at Watson,49.91122,-119.44942,0,103103
103080,Glenmore at Yates,49.90911,-119.4509,0,103080
103048,Glenmore at Glenmeadows,49.90405,-119.45336,0,103048
103005,High at Kennedy,49.90041,-119.45849,0,103005
102987,High at Tronson,49.89847,-119.46225,0,102987
102968,Clifton at Lynwood,49.89726,-119.46588,0,102968
102965,Clifton at Lambert,49.8959,-119.4659,0,102965
102959,Clifton at Hartwick,49.89387,-119.46595,0,102959
103031,Clement at Cerise,49.89277,-119.47138,0,103031
140050,Clement at Gordon,49.89372,-119.47777,0,140050
102905,Graham at Clement,49.89328,-119.47995,0,102905
102903,Cawston at Graham,49.89167,-119.48059,0,102903
102894,Cawston at Ethel,49.89168,-119.48331,0,102894
102867,Doyle at Bertram,49.88904,-119.49058,0,102867
103003,Glenmore at Bernard,49.88905,-119.45421,0,103003
103008,Glenmore at Highland Dr,49.89407,-119.45415,0,103008
103026,Glenmore at Mountain,49.89679,-119.45408,0,103026
103140,Kane at Drysdale,49.91535,-119.44385,0,103140
103243,Union at Valley,49.9254,-119.43203,0,103243
103035,Glenmore at High,49.89996,-119.45438,0,103035
103013,Glenmore at Mountain,49.89592,-119.45449,0,103013
103007,Glenmore at Highland Dr,49.89402,-119.45454,0,103007
103000,Glenmore at Dilworth,49.88976,-119.45456,0,103000
103132,Cross at Glenmore,49.92343,-119.44008,0,103132
103206,Snowsell at Cross,49.92446,-119.44177,0,103206
103226,Snowsell at Porthill,49.92719,-119.43902,0,103226
103236,Union at Wyndham,49.92785,-119.43703,0,103236
140159,Innovation at University Way,49.94257,-119.39061,0,140159
104916,Innovation at Airport Way,49.95166,-119.38964,0,104916
103611,Hwy 97 at Old Vernon,49.97077,-119.38572,0,103611
103650,Hwy 97 at Parkinson,50.00075,-119.40285,0,103650
103653,Hwy 97 at Commonwealth,50.00833,-119.4028,0,103653
103654,Hwy 97 at Beaver Lake,50.02081,-119.40618,0,103654
103658,Main at Winfield,50.02352,-119.40417,0,103658
103661,Bottom Wood Lake at George Elliott,50.03105,-119.40199,0,103661
103663,Lodge at Bottom Wood Lake,50.0347,-119.40096,0,103663
103666,10300 Block Lodge,50.03466,-119.39335,0,103666
103673,Lodge at Quail,50.04069,-119.39199,0,103673
103676,Lodge at Sherman,50.04299,-119.39142,0,103676
103678,11200 Block Lodge,50.04514,-119.39088,0,103678
103684,Woodsdale at Lodge,50.04938,-119.39092,0,103684
103683,Woodsdale at Reiswig,50.04933,-119.39768,0,103683
103681,Woodsdale at Bottom Wood Lake,50.04934,-119.40267,0,103681
140001,Woodsdale at Rogers,50.04933,-119.40399,0,140001
103679,Woodsdale at Turtle Bay,50.04934,-119.40772,0,103679
103688,Okanagan Centre at Oceola,50.06003,-119.41859,0,103688
103677,Okanagan Centre at Davidson,50.05003,-119.41913,0,103677
103674,11330 Block Okanagan Centre,50.04746,-119.41834,0,103674
103670,Okanagan Centre at Williams,50.04408,-119.41669,0,103670
103668,Okanagan Centre at Seaton,50.04127,-119.41452,0,103668
103662,Okanagan Centre at Camp,50.03587,-119.41149,0,103662
103659,Okanagan Centre at Berry,50.03079,-119.41034,0,103659
140105,Edwards at Hwy 97,49.92429,-119.38502,0,140105
140107,Acland at Penno,49.92214,-119.38407,0,140107
140111,Rutland at Commercial,49.91505,-119.38664,0,140111
140245,Rutland at Rains,49.91014,-119.38691,0,140245
103608,Lower Glenrosa at Paynter,49.82971,-119.63564,0,103608
103621,Lower Glenrosa at Glenway,49.82656,-119.64675,0,103621
103632,Lower Glenrosa at Glen,49.82501,-119.65077,0,103632
103630,Lower Glenrosa at Glenford,49.82818,-119.65282,0,103630
103614,Webber at Dunbarton,49.83901,-119.65335,0,103614
103615,Webber at McAllister,49.84093,-119.65547,0,103615
103618,Webber at McRae,49.84307,-119.65903,0,103618
103622,Webber at McGregor,49.84535,-119.66172,0,103622
103624,McNair at Webber,49.84718,-119.66355,0,103624
103629,McIver at McRobbie,49.8467,-119.66575,0,103629
103626,McIver at McBain,49.84375,-119.66364,0,103626
103625,McIver at McRae,49.84196,-119.662,0,103625
103628,McIver at McTaggart,49.83965,-119.66108,0,103628
103634,McIver at Glenrosa,49.83432,-119.65978,0,103634
103640,Glenrosa at Parkhurst,49.83652,-119.66334,0,103640
103642,McGinnis at Liard,49.83894,-119.66637,0,103642
103633,McGinnis at McGee,49.84223,-119.66491,0,103633
103631,McLeod at McGinnis,49.844,-119.66541,0,103631
103636,McLeod at McCoy,49.84589,-119.66771,0,103636
103638,McLeod at Blue Jay,49.84748,-119.66933,0,103638
103641,Canary at Blue Jay,49.8487,-119.67165,0,103641
103646,Oriole at Canary,49.84766,-119.67301,0,103646
103648,Salmon at Oriole,49.84566,-119.67284,0,103648
103644,Gates at McMurchie,49.84472,-119.67019,0,103644
103647,Gates at McPherson,49.842,-119.67023,0,103647
103649,Gates at Glenrosa,49.8409,-119.67024,0,103649
103645,Glenrosa at Rosedale,49.83822,-119.66739,0,103645
103639,Glenrosa at McIver,49.83463,-119.66181,0,103639
103637,Glenrosa at Glen Abbey,49.83202,-119.65859,0,103637
103643,Glenrosa at Dunfield,49.8242,-119.65376,0,103643
103595,Old Okanagan at Drought,49.83014,-119.62535,0,103595
103584,3590 Block Old Okanagan,49.83343,-119.62537,0,103584
103563,Old Okanagan at Butt,49.8371,-119.6254,0,103563
103551,Old Okanagan at Chieftain,49.8403,-119.62544,0,103551
103541,3330 Block Old Okanagan,49.84244,-119.62545,0,103541
103516,Shannon Lake at Old Okanagan Hwy,49.84616,-119.62221,0,103516
103493,Shannon Lake at Shannon Way,49.84953,-119.61979,0,103493
140170,Shannon Way at Westville,49.84892,-119.6154,0,140170
140193,Woodstock at Sandstone,49.85024,-119.61384,0,140193
140194,Shannon Ridge at Ridge Place,49.85339,-119.61379,0,140194
140195,Shannon Ridge at Shannon Green Court,49.85472,-119.61117,0,140195
140177,2179 Block Shannon Ridge,49.85579,-119.60559,0,140177
140179,2886 Block Auburn,49.85562,-119.60073,0,140179
140168,Daimler at Auburn,49.85732,-119.59814,0,140168
140182,Byland at Compass,49.86075,-119.58947,0,140182
103265,Ross at Brentwood,49.86081,-119.5774,0,103265
103279,Ross at Applegreen,49.86083,-119.58008,0,103279
103301,Ross at Riffington,49.86086,-119.58389,0,103301
140202,Byland at Compass,49.86083,-119.58954,0,140202
140203,Byland at Kyle,49.85816,-119.59337,0,140203
140209,Daimler at Auburn,49.85751,-119.5984,0,140209
140199,Auburn at Shelby,49.85639,-119.60087,0,140199
140200,Auburn at Shannon Ridge,49.85377,-119.60086,0,140200
140198,2176 Block Shannon Ridge Drive,49.85589,-119.6056,0,140198
140208,Shannon Ridge at Shannon Green,49.85453,-119.61203,0,140208
140207,Shannon Ridge at Lakeside Court,49.85361,-119.61363,0,140207
103471,Woodstock at Shannon Court,49.85085,-119.6149,0,103471
103469,Woodstock at Sandstone,49.84963,-119.6137,0,103469
103481,Shannon Way at Westville,49.84902,-119.6156,0,103481
103495,Shannon Lake at Shannon Way,49.84942,-119.6201,0,103495
103513,Shannon Lake at Old Okanagan Hwy,49.8466,-119.6224,0,103513
103542,3340 Block Old Okanagan,49.84236,-119.62557,0,103542
103552,Old Okanagan at Chieftain,49.84021,-119.62556,0,103552
103556,Old Okanagan at Quince,49.8383,-119.62555,0,103556
103565,Old Okanagan at Butt,49.83656,-119.62553,0,103565
103575,Old Okanagan at Bering,49.83419,-119.62551,0,103575
103593,Old Okanagan at Drought,49.83067,-119.62549,0,103593
103597,Main at Hoskins,49.82964,-119.62627,0,103597
103596,Dobbin at Old Okanagan,49.82867,-119.62476,0,103596
103581,Gellatly at Carrington,49.82941,-119.62109,0,103581
103580,Gellatly at Witt,49.82736,-119.61874,0,103580
103586,Boucherie at Gellatly,49.82381,-119.61586,0,103586
103065,Boucherie at Carrall,49.82514,-119.60949,0,103065
103529,2040 Block Boucherie,49.82626,-119.60476,0,103529
103519,2030 Block Boucherie,49.82671,-119.60205,0,103519
103500,Old Boucherie at Boucherie,49.82767,-119.59875,0,103500
103492,1950 Block Old Boucherie,49.8277,-119.59702,0,103492
103484,Old Boucherie at Hitchner,49.82774,-119.59299,0,103484
103467,Old Boucherie at Pritchard,49.82781,-119.58937,0,103467
103452,Boucherie at Pritchard,49.83094,-119.58828,0,103452
103418,Boucherie at Green Bay,49.83474,-119.57944,0,103418
103351,Boucherie at Mission Hill,49.84013,-119.57359,0,103351
103302,Boucherie at Sunnyside,49.84387,-119.56543,0,103302
103266,Boucherie at Gregory,49.84694,-119.55991,0,103266
103239,Boucherie at Montigny,49.84895,-119.55707,0,103239
103217,Ogden at Boucherie,49.85288,-119.55563,0,103217
103195,Thacker at Beverly,49.85252,-119.54781,0,103195
103181,Thacker at Collens Hill,49.85383,-119.54566,0,103181
103160,Thacker at Douglas,49.8564,-119.54544,0,103160
103135,Anders at Thacker,49.86003,-119.54574,0,103135
103164,Anders at Olalla,49.86031,-119.55198,0,103164
103183,Hudson at Boucherie,49.86245,-119.55688,0,103183
140065,Hudson at Concord,49.86268,-119.56288,0,140065
103220,Alhambra at Brentwood,49.86203,-119.56697,0,103220
103234,Brentwood at Denny,49.86127,-119.56926,0,103234
103249,Brentwood at Applewood,49.86146,-119.57255,0,103249
103299,Ross at Cameron,49.86073,-119.58302,0,103299
103282,Ross at Applegreen,49.86072,-119.58012,0,103282
103261,Brentwood at Vista,49.8614,-119.57523,0,103261
103254,Brentwood at Applewood,49.86137,-119.57259,0,103254
103233,Brentwood at Denny,49.86118,-119.5693,0,103233
103219,Alhambra at Brentwood,49.86201,-119.56683,0,103219
140066,Hudson at Westlake,49.86265,-119.56391,0,140066
103180,Hudson at Boucherie,49.86235,-119.5565,0,103180
103163,Anders at Olalla,49.86016,-119.55063,0,103163
103134,Anders at Thacker,49.85992,-119.54544,0,103134
103167,Thacker at Douglas,49.85579,-119.5457,0,103167
103182,Thacker at Collens Hill,49.85383,-119.54591,0,103182
103197,Thacker at Beverly,49.85268,-119.54852,0,103197
103216,Ogden at Boucherie,49.853,-119.55566,0,103216
103244,Boucherie at Montigny,49.84871,-119.55757,0,103244
103268,Boucherie at Gregory,49.84647,-119.56099,0,103268
103306,Boucherie at Sunnyside,49.84366,-119.56609,0,103306
103359,Boucherie at Mission Hill,49.83973,-119.57402,0,103359
103417,Boucherie at Green Bay,49.835,-119.5793,0,103417
103460,Pritchard at Boucherie,49.83058,-119.58902,0,103460
103474,Old Boucherie at Pritchard,49.82791,-119.58995,0,103474
103486,Old Boucherie at Hitchner,49.82783,-119.59359,0,103486
103491,1950 Block Old Boucherie,49.82781,-119.59699,0,103491
103510,2070 Block Boucherie,49.82765,-119.60019,0,103510
103518,2030 Block Boucherie,49.82678,-119.60213,0,103518
103532,2040 Block Boucherie,49.82617,-119.60524,0,103532
103553,Boucherie at Carrall,49.82524,-119.60947,0,103553
103566,Boucherie at Carrall,49.82474,-119.61267,0,103566
103590,Boucherie at Gellatly,49.82377,-119.61659,0,103590
103582,Gellatly at Witt,49.82757,-119.619,0,103582
103579,Gellatly at Carrington,49.82888,-119.62044,0,103579
103328,Ross at Bartley,49.8602,-119.58971,0,103328
103381,Ross at Daimler,49.85618,-119.594,0,103381
103395,Old Okanagan at Daimler,49.85604,-119.59671,0,103395
103435,Old Okanagan at Shamrock,49.84924,-119.60116,0,103435
103462,Old Okanagan at Louie,49.84547,-119.60728,0,103462
104911,Old Okanagan at Skyview,49.84488,-119.60947,0,104911
103505,Old Okanagan at Bayview,49.8436,-119.61734,0,103505
103672,Huston at Lang,49.79247,-119.70544,0,103672
103682,Trepanier Bench at Desert Pines,49.78635,-119.71073,0,103682
103686,Peachland Village Centre,49.78471,-119.71764,0,103686
103689,13th St at Lake,49.78264,-119.72329,0,103689
103691,Beach at 11th St,49.78188,-119.7291,0,103691
103693,Beach at 8th St,49.7805,-119.73201,0,103693
103694,Beach at 6th St,49.77759,-119.73379,0,103694
140221,Beach at 4th,49.77477,-119.73514,0,140221
103701,Beach at Highway 97,49.77045,-119.73964,0,103701
103705,Princeton at Somerset,49.76668,-119.74825,0,103705
103708,Princeton at Lipsett,49.76466,-119.75171,0,103708
103710,Princeton at Ellison,49.7623,-119.75708,0,103710
103712,Princeton at Turner,49.75959,-119.76161,0,103712
103714,Princeton at Whinton,49.75688,-119.76399,0,103714
103716,Princeton at Vernon,49.75505,-119.76698,0,103716
103717,5000 Block Princeton,49.75376,-119.77165,0,103717
103719,Princeton at Forest Hill,49.75239,-119.77841,0,103719
103721,Princeton at Pineridge,49.7521,-119.78355,0,103721
103723,Princeton at Bradbury,49.75194,-119.78764,0,103723
103722,Princeton at Pineridge,49.752,-119.78354,0,103722
103720,Princeton at Keyes,49.75229,-119.77856,0,103720
103718,5000 Block Princeton,49.75369,-119.77149,0,103718
103715,Princeton at Vernon,49.75512,-119.76637,0,103715
103713,Princeton at Whinton,49.757,-119.76356,0,103713
103711,Princeton at Turner,49.75947,-119.76076,0,103711
103709,Princeton at Gummow,49.76258,-119.75472,0,103709
103707,Princeton at Lipsett,49.76471,-119.75143,0,103707
103706,Princeton at Somerset,49.76624,-119.74866,0,103706
103703,Princeton at Princess,49.76884,-119.74467,0,103703
103700,Beach at Highway 97,49.77085,-119.73908,0,103700
140222,Beach at 4th,49.7747,-119.73506,0,140222
103695,Beach at 6th St,49.77638,-119.73427,0,103695
103692,Beach at 11th St,49.78121,-119.73113,0,103692
104912,Beach at 12th St,49.78188,-119.72608,0,104912
103690,13th St at Lake,49.7827,-119.72315,0,103690
103675,Buchanan at Hwy 97 S,49.78912,-119.70749,0,103675
103671,Buchanan at Beach Avenue,49.79245,-119.70261,0,103671
103667,Buchanan at Burden,49.79458,-119.69935,0,103667
103528,Old Okanagan at Shannon Lake,49.84479,-119.62391,0,103528
103502,Old Okanagan at Bayview,49.84351,-119.61736,0,103502
103473,Old Okanagan at Old Raven,49.84478,-119.60989,0,103473
103459,Old Okanagan at Louie,49.84551,-119.6064,0,103459
103434,Old Okanagan at Shamrock,49.84915,-119.60106,0,103434
103393,Old Okanagan at Daimler,49.85604,-119.59657,0,103393
103379,Ross at Daimler,49.85624,-119.59386,0,103379
103329,Ross at Bartley,49.86011,-119.58953,0,103329
103537,Butt at Louie,49.83691,-119.61937,0,103537
140067,Louie at Butt,49.83779,-119.61573,0,140067
140068,Louie at Elk,49.84031,-119.61231,0,140068
103527,Butt at Carrington,49.83535,-119.61439,0,103527
103508,3530 Block Carrington,49.83681,-119.61117,0,103508
103483,Carrington at Elk,49.83844,-119.60908,0,103483
140117,Elk at Acorn,49.83913,-119.60606,0,140117
103463,Elk at Cougar,49.839,-119.60133,0,103463
103447,Ridge Estates at Elk,49.8362,-119.59467,0,103447
140095,East Boundary at Wolfe,49.83921,-119.59181,0,140095
103422,East Boundary at Elk,49.84047,-119.58896,0,103422
103403,East Boundary at Vineyard,49.84568,-119.589,0,103403
103388,3120 Block East Boundary,49.8486,-119.58899,0,103388
103389,3130 Block East Boundary,49.84856,-119.58912,0,103389
103407,East Boundary at Eagle,49.84488,-119.58914,0,103407
103427,East Boundary at Elk,49.84023,-119.5891,0,103427
140094,East Boundary at Wolfe,49.8393,-119.5918,0,140094
103450,Elk at Ridge Estates,49.83628,-119.59588,0,103450
103465,Elk at Cougar,49.83914,-119.60246,0,103465
140116,Elk at Acorn,49.83922,-119.60591,0,140116
103485,Carrington at Elk,49.83866,-119.60907,0,103485
103509,3530 Block Carrington,49.83686,-119.6113,0,103509
103525,Butt at Carrington,49.83557,-119.61434,0,103525
103497,Louie at Elk,49.84029,-119.61252,0,103497
103511,Louie at Butt,49.8385,-119.61494,0,103511
103535,Butt at Louie,49.837,-119.61936,0,103535
103609,Airport Way at Old Vernon,49.96977,-119.38373,0,103609
103607,Airport Way at Lapointe,49.96419,-119.38187,0,103607
103574,5600 Block Airport Way,49.95571,-119.38163,0,103574
103656,Kelowna Airport,49.95206,-119.3833,0,103656
103680,Kelowna Airport,49.95212,-119.38314,0,103680
103569,5600 Block Airport Way,49.95585,-119.38145,0,103569
103604,Airport Way at Lapointe,49.96414,-119.38173,0,103604
103610,Airport Way at Old Vernon,49.9695,-119.38341,0,103610
103425,Old Vernon at Acland,49.91813,-119.38287,0,103425
103480,Old Vernon at Morrison,49.91807,-119.36946,0,103480
103506,Old Vernon at McKenzie,49.91962,-119.36414,0,103506
103548,Old Vernon at Scotty Creek,49.93301,-119.36409,0,103548
103561,3600 Block Old Vernon,49.93716,-119.36407,0,103561
103576,Old Vernon at Bulman,49.94041,-119.36411,0,103576
103600,Old Vernon at Black,49.95113,-119.36867,0,103600
104913,Old Vernon at Teather,49.96147,-119.36886,0,104913
103620,Old Vernon at Spencer,49.97048,-119.3707,0,103620
103619,Old Vernon at Spencer,49.97036,-119.3707,0,103619
103613,Old Vernon at Teather,49.96097,-119.36898,0,103613
103599,Old Vernon at Black,49.95112,-119.36886,0,103599
103577,Old Vernon at Bulman,49.94079,-119.36455,0,103577
103564,3660 Block Old Vernon,49.93754,-119.36421,0,103564
103547,Old Vernon at Scotty Creek,49.93322,-119.36423,0,103547
103503,Old Vernon at McKenzie,49.91962,-119.36428,0,103503
103478,Old Vernon at Morrison,49.91821,-119.37012,0,103478
140176,Elliott at Solar,49.8312,-119.63098,0,140176
140174,Elliott at Springer Lane,49.83371,-119.63103,0,140174
140172,Elliott at Butt,49.83711,-119.63103,0,140172
140175,Elliott at Neufeld,49.84168,-119.63387,0,140175
140173,Elliott at Reece,49.8443,-119.63392,0,140173
140196,Smith Creek at Elliott,49.84772,-119.63908,0,140196
140197,Smith Creek at Wild Horse,49.85124,-119.64235,0,140197
140167,Copper Ridge at Smith Creek,49.85379,-119.64351,0,140167
140192,Whispering Hills at Copper Ridge,49.8531,-119.64055,0,140192
140178,2569 Block Wildhorse,49.85309,-119.63649,0,140178
140171,Wildhorse at Bridlehill,49.85374,-119.63274,0,140171
140183,Ironridge at Ironridge Court,49.85452,-119.62768,0,140183
140166,Asquith at Saddleback,49.8512,-119.62468,0,140166
140187,Shannon Lake at Shannon Ridge,49.85308,-119.61752,0,140187
140189,Shannon Lake at Swite,49.85531,-119.61792,0,140189
140188,Shannon Lake at Stonegrove,49.85823,-119.6168,0,140188
140190,Shannon Lake at Tallus Ridge Drive,49.86248,-119.61289,0,140190
140184,Shannon Lake at Golf Course Drive,49.86354,-119.6094,0,140184
140185,Shannon Lake at Shannon View Drive,49.86596,-119.6049,0,140185
140186,Shannon Lake at Shannon Lake Drive,49.86691,-119.59986,0,140186
140169,Shannon Lake at Crystal,49.86732,-119.59091,0,140169
140201,Bartley at Shannon Lake,49.86403,-119.58783,0,140201
103262,Ross at Brentwood,49.86189,-119.57587,0,103262
103258,Ross at Western,49.86368,-119.57583,0,103258
103251,Ross at Stevens,49.86582,-119.57582,0,103251
103230,1380 Block Stevens,49.86627,-119.57189,0,103230
140069,Stevens at Mcdougall,49.86598,-119.5675,0,140069
103173,Westlake at Caledonia,49.87347,-119.56304,0,103173
103178,Westlake at Rosewood,49.8777,-119.5663,0,103178
103161,Westlake at Starlight,49.87915,-119.56426,0,103161
140153,Westlake at Peak Point,49.88398,-119.56054,0,140153
103115,Westlake at Horizon,49.88503,-119.55698,0,103115
103110,Westlake at Keloka,49.88711,-119.55568,0,103110
103094,Parkinson at Westlake,49.89125,-119.55277,0,103094
140154,Parkinson at Pettman,49.89593,-119.54971,0,140154
103066,Parkinson at Bear Creek,49.89893,-119.54703,0,103066
140155,Bear Creek at Vancouver,49.89527,-119.54744,0,140155
103043,Westside at Bear Creek,49.89228,-119.54262,0,103043
103047,Westside at Westpoint Park,49.88551,-119.54411,0,103047
103027,Westside at Nancee Way,49.88307,-119.53813,0,103027
140013,Sneena at Westside,49.88071,-119.5341,0,140013
103078,Boucherie at Hayman,49.87266,-119.5447,0,103078
103162,Boucherie at Stuart,49.86412,-119.5551,0,103162
140092,Bottom Wood Lake at Powley,50.0383,-119.40293,0,140092
140091,Bottom Wood Lake at Mayrus,50.04335,-119.40297,0,140091
140090,Bottom Wood Lake at Wageman,50.04629,-119.40299,0,140090
140096,Lake Hill at Oceola,50.06138,-119.41821,0,140096
140080,Lake Hill at Lake Breeze,50.06598,-119.41901,0,140080
140082,Shoreline Way at Lake Hill,50.07352,-119.41726,0,140082
140083,Lake Hill at Shoreline Way,50.07171,-119.41646,0,140083
140084,Stillwater at Lake Hill,50.06954,-119.41854,0,140084
140085,Stillwater at Driftwood,50.06784,-119.41929,0,140085
140086,Lake Hill at Lake Breeze,50.06626,-119.41895,0,140086
140087,Lake Hill at Oceola,50.06129,-119.41834,0,140087
140088,Oceola at Pretty,50.0547,-119.41142,0,140088
140089,Woodsdale at Turtle Bay,50.04925,-119.40761,0,140089
140054,Woodsdale at Bottom Wood Lake,50.04924,-119.404,0,140054
140079,Bottom Wood Lake at Wageman,50.04597,-119.40312,0,140079
140078,Bottom Wood Lake at Mayrus,50.04311,-119.4031,0,140078
140077,Bottom Wood Lake at Powley,50.03782,-119.40308,0,140077
140093,Bottom Wood Lake at Berry,50.03032,-119.40192,0,140093
140014,Bottom Wood Lake at Konschuh,50.02872,-119.40067,0,140014
140015,Bottom Wood Lake at Seniors Centre,50.02447,-119.39926,0,140015
140016,Beaver Lake at Jensen,50.02018,-119.40119,0,140016
140017,Main at Hill,50.02083,-119.40426,0,140017
140180,Bartley at Byland,49.86302,-119.58757,0,140180
140210,Shannon Lake at Crystal Drive,49.86869,-119.59306,0,140210
140212,Shannon Lake at Shannon Woods Drive,49.86578,-119.60611,0,140212
140191,Shannon Lake at Tallus Ridge,49.86323,-119.612,0,140191
140205,Shannon Lake at Stonegrove,49.85825,-119.61694,0,140205
140204,Shannon Lake at Alexandria,49.85515,-119.61803,0,140204
140206,Shannon Lake at Asquith,49.85159,-119.61851,0,140206
140058,Asquith at Saddleback,49.8507,-119.62354,0,140058
140059,Ironridge at Ironridge Place,49.8545,-119.62783,0,140059
140060,WildHorse at Bridlehill,49.85388,-119.63302,0,140060
140061,WildHorse at Bridlehill,49.85346,-119.63555,0,140061
140062,Whispering Hills at Wild Horse,49.85228,-119.64166,0,140062
140063,CopperRidge at Smith,49.85389,-119.64384,0,140063
140064,Smith Creek at Sugosa,49.85176,-119.6431,0,140064
103589,Smith Creek at Elliott,49.84782,-119.63926,0,103589
103573,Elliott at Reece,49.84423,-119.63405,0,103573
103585,Elliott at Neufeld,49.84199,-119.63402,0,103585
103594,Elliott at Butt,49.83642,-119.63117,0,103594
103598,3580 Block Elliott,49.83354,-119.63114,0,103598
103602,Elliott at Delray,49.83015,-119.63108,0,103602
103457,Okanagan College Exchange,49.86095,-119.4812,0,103457
103038,KLO at Gordon,49.86091,-119.47554,0,103038
103045,KLO at Holland,49.86091,-119.47253,0,103045
103059,KLO at Saint Amand,49.8609,-119.46676,0,103059
103088,KLO at Benvoulin,49.86088,-119.45995,0,103088
103084,KLO at Benvoulin,49.86104,-119.45854,0,103084
103042,KLO at Holland,49.86109,-119.47275,0,103042
103040,Casorso at Lanfranco,49.85831,-119.48549,0,103040
103039,Lanfranco at Lakeshore,49.85815,-119.4903,0,103039
103326,Dougall Rd at Shephard,49.89262,-119.39273,0,103326
103335,Leathead at Asher,49.8953,-119.39157,0,103335
103375,Rutland at Hardie,49.89512,-119.38697,0,103375
140147,Academy Way at Aberdeen Hall,49.93462,-119.40135,0,140147
140145,Academy Way at Acadia,49.93211,-119.4014,0,140145
140143,Academy Way at Vint,49.92817,-119.40007,0,140143
140141,Academy Way at Arab,49.92285,-119.39965,0,140141
103362,Sexsmith at Cambro,49.91897,-119.39783,0,103362
140157,Sexsmith at Adams,49.9181,-119.38901,0,140157
103215,Enterprise at Hwy 97,49.8955,-119.41605,0,103215
103507,Cooper at Harvey,49.87956,-119.44306,0,103507
140156,Sexsmith at Adams,49.91822,-119.38993,0,140156
103374,Hollywood at Sexsmith,49.9188,-119.39774,0,103374
140140,Academy at Shetland,49.92234,-119.39804,0,140140
140142,Academy Way at Vint,49.92831,-119.39994,0,140142
140144,Academy Way at Acadia,49.93228,-119.40138,0,140144
140146,Academy Way at Aberdeen Hall,49.93471,-119.40111,0,140146
103179,Boucherie at Skyline,49.86133,-119.55544,0,103179
140110,Rutland at Old Vernon,49.91748,-119.38431,0,140110
140181,Byland at Kyle,49.85908,-119.5919,0,140181
103844,Princeton at Pierce,49.75315,-119.7902,0,103844
103063,Bear Creek at McNaughton,49.89299,-119.54761,0,103063
140163,John Hindle at Landfill,49.94478,-119.4148,0,140163
103664,Lodge at Meadow,50.03467,-119.39688,0,103664
103685,Oceola at Pretty,50.05535,-119.41125,0,103685
103627,Webber at Salloum,49.83,-119.6532,0,103627
103623,Webber at Scotstown,49.83283,-119.65316,0,103623
103617,Webber at Aberdeen,49.8354,-119.65331,0,103617
103616,Webber at Gorman,49.83695,-119.65332,0,103616
103665,Huston at Huston,49.79564,-119.69837,0,103665
103669,Huston at Shaw,49.79477,-119.70139,0,103669
103702,Princeton at Lakeview,49.76999,-119.7425,0,103702
103704,Princeton at Columbia,49.76867,-119.74559,0,103704
140158,KLO at Benvoulin Rd,49.86109,-119.45483,0,140158
103848,Country Club at Quail Ridge,49.96292,-119.39911,0,103848
103849,Country Club at Via Centrale,49.95503,-119.39992,0,103849
103853,1840 Block Country Club Drive,49.953,-119.39964,0,103853
103858,1740 Block Country Club Drive,49.95116,-119.39982,0,103858
103852,1840 Block Country Club Drive,49.95311,-119.39954,0,103852
103845,Country Club at Via Centrale,49.95498,-119.39983,0,103845
103851,Quail Ridge at Country Club,49.96253,-119.39818,0,103851
103392,Rutland at Fitzpatrick,49.90671,-119.38689,0,103392
140240,Springfield at Leckie,49.87982,-119.4261,0,140240
102994,Parkinson at Ufton,49.8831,-119.45592,0,102994
102993,Parkinson at Ufton,49.88315,-119.45636,0,102993
140249,Innovation at Spectrum,49.94857,-119.38921,0,140249
140248,Innovation at Spectrum,49.94787,-119.38919,0,140248
140250,Innovation at Fleet,49.94975,-119.38983,0,140250
140251,Innovation at Fleet Court,49.95003,-119.38966,0,140251
102985,Harvey at Kirschner - Parkinson Station,49.88182,-119.45904,0,102985
103224,Valley at Drysdale,49.9232,-119.43309,0,103224
140252,Valley at Glen Park,49.91716,-119.4362,0,140252
103203,Valley at Longhill,49.91991,-119.43415,0,103203
140247,South Perimeter Way at Mountainside,49.78899,-119.52113,0,140247
140254,Rutland at McIntosh,49.89226,-119.38696,0,140254
140235,Enterprise Way at Commerce,49.89403,-119.41983,0,140235
140256,Steele Rd at Arbor View,49.80637,-119.4723,0,140256
140234,Enterprise Way at Commerce,49.89376,-119.4206,0,140234
140259,Acland at Old Vernon,49.91874,-119.38408,0,140259
140258,Sutherland at Chandler,49.88028,-119.46876,0,140258
