stop_id,stop_name,stop_lat,stop_lon,wheelchair_boarding,stop_code
190012,Immanuel at 6th Ave E,54.32764,-130.29324,0,190012
190013,6th Ave E at Kay Smith Blvd,54.32671,-130.29581,0,190013
190092,5th Ave at McBride,54.31418,-130.31812,0,190092
190042,2nd Ave W at 3rd St,54.31355,-130.32536,0,190042
190044,2nd Ave W at 1st St,54.31525,-130.32257,0,190044
190098,George Hills Way at Cow Bay Rd,54.3193,-130.31695,0,190098
190099,Cow Bay Rd at 3rd Ave,54.31766,-130.31823,0,190099
190017,6th Ave E at Ambrose Ave,54.32089,-130.30533,0,190017
190096,George Hills Way at Dry Dock Rd,54.32143,-130.30898,0,190096
190015,6th Ave E at Overlook St,54.32356,-130.30099,0,190015
190016,6th Ave E at Claude St,54.32246,-130.30275,0,190016
190014,6th Ave E at 1419 Blk,54.32515,-130.29841,0,190014
190100,3rd Ave E at 207 Blk,54.31634,-130.31911,0,190100
190097,George Hills Way at Charlie Currie Rd,54.32036,-130.31211,0,190097
190046,McBride at 6th Ave W,54.31301,-130.3175,0,190046
190073,2nd Ave at 11th St,54.30652,-130.3372,0,190073
190074,Atlin at 2nd Ave,54.30498,-130.34017,0,190074
190077,Graham at 17th,54.30108,-130.34982,0,190077
190078,Graham at Van Arsdol,54.29921,-130.35134,0,190078
190079,Van Arsdol at 144 Blk,54.29827,-130.3507,0,190079
190084,2nd Ave at 11th St,54.30677,-130.33643,0,190084
190085,3rd Ave at Biggar Pl,54.30818,-130.3321,0,190085
190089,Prince Rupert Ferry Terminal,54.29326,-130.35283,0,190089
190090,11th St at Park Ave,54.30555,-130.33592,0,190090
190053,Pr Rupert Blvd at Portage Rd,54.31357,-130.29954,0,190053
191001,Evergreen at 470 Blk,54.2261,-130.29022,0,191001
191002,Evergreen at Wildwood,54.22358,-130.28844,0,191002
190048,McBride at 8th Ave W,54.31183,-130.31543,0,190048
190049,Civic Centre Complex,54.30999,-130.31233,0,190049
191003,Alder at Pacific,54.2204,-130.28869,0,191003
191004,Oceanview at Hillcrest,54.21791,-130.28833,0,191004
190088,Park Ave at 1402 Blk,54.30348,-130.33713,0,190088
190039,Kootenay at Cade Pl,54.30148,-130.33695,0,190039
190011,7th Ave E at Seal Cove Circle,54.32898,-130.29006,0,190011
190101,McBride at 2nd,54.31589,-130.3223,0,190101
190000,6th Ave E at Hays Cove Ave,54.32061,-130.30542,0,190000
190024,Summit at Roosevelt Park Elementary,54.30728,-130.32639,0,190024
190022,6th Ave W at Taylor,54.30842,-130.32552,0,190022
190019,2nd Ave W at 3rd St,54.31317,-130.32637,0,190019
190020,Fulton at 3rd Ave W,54.31192,-130.32536,0,190020
190050,McBride at 9th Ave E,54.31086,-130.31315,0,190050
190047,McBride at 6th Ave E,54.31353,-130.31795,0,190047
190059,Immanuel at 11th Ave E,54.32493,-130.28834,0,190059
190060,11th Ave E at Plaza St,54.32261,-130.29272,0,190060
190061,Hays Cove at Frederick,54.32229,-130.2957,0,190061
190062,Hays Cove at 1200 Blk,54.32182,-130.29784,0,190062
190057,India Ave at Frederick,54.32155,-130.29215,0,190057
190051,Pr. Rupert Blvd at Gull Cres,54.3106,-130.30668,0,190051
190064,Alfred at Hays Cove,54.31985,-130.30518,0,190064
190065,Alfred at 834 Blk,54.31833,-130.30384,0,190065
190055,Pr Rupert Blvd at Conrad,54.31791,-130.29749,0,190055
190058,India Ave at Goddard,54.32312,-130.28954,0,190058
190063,Hays Cove at 8th Ave E (WB),54.32099,-130.30171,0,190063
190043,1st St at McBride,54.31597,-130.32383,0,190043
190087,11th St at Park Ave,54.30547,-130.33614,0,190087
190070,2nd Ave at 6th,54.31149,-130.32909,0,190070
190071,2nd Ave at 8th,54.31016,-130.3312,0,190071
191005,Skeena at Alder,54.21971,-130.29086,0,191005
191000,Evergreen at Skeena,54.22798,-130.29176,0,191000
190102,Butze Rapids Lookout Point,54.30701,-130.26746,0,190102
191006,Skeena at Harbourview,54.2235,-130.29228,0,191006
191007,Skeena at Sunset,54.22566,-130.29157,0,191007
190008,Seal Cove Sea Plane Terminal,54.33,-130.28121,0,190008
190009,Bellis Rd at Inland Air Terminal,54.33037,-130.28331,0,190009
190005,Immanuel at 6th Ave E,54.32754,-130.29336,0,190005
190006,7th Ave E at Seal Cove Rd,54.32869,-130.29019,0,190006
190001,6th Ave E at Claude,54.32247,-130.30244,0,190001
190093,5th Ave at Cotton,54.31565,-130.31569,0,190093
190007,Bellis Rd at Seal Cove Rd,54.33055,-130.2869,0,190007
190003,6th Ave E at 1408 Blk,54.3252,-130.29798,0,190003
190004,6th Ave E at Kay Smith Blvd,54.32687,-130.29523,0,190004
190010,Seal Cove Rd at Bellis Rd,54.33035,-130.28772,0,190010
190095,Hays Cove Circle at 6th Ave,54.31883,-130.30969,0,190095
190002,6th Ave E at Donald,54.32355,-130.30079,0,190002
190094,5th Ave at Eberts,54.31715,-130.31321,0,190094
190027,Summit at 1300 Blk,54.30361,-130.33037,0,190027
190029,Sloan at McKay,54.30252,-130.33244,0,190029
190025,Summit at Hospital Entrance,54.30521,-130.33211,0,190025
190030,McKay at Kootenay,54.30322,-130.33465,0,190030
190028,Summit at Summit,54.30361,-130.33166,0,190028
190035,Pillsbury at Kootenay,54.2949,-130.34168,0,190035
190036,Kootenay at 1839 Blk,54.29587,-130.34167,0,190036
190091,6th Ave at Musgrave,54.3094,-130.32424,0,190091
190023,Summit at 860 Blk,54.30705,-130.32597,0,190023
190026,Summit at 1129 Blk,54.30441,-130.32804,0,190026
190037,Kootenay at Four Wnds Apts,54.29825,-130.34028,0,190037
190031,Sloan at Ritchie,54.30145,-130.33378,0,190031
190038,Kootenay at Smithers,54.29991,-130.33874,0,190038
190040,Kootenay at Ritchie,54.30271,-130.33593,0,190040
190033,Sloan at Pillsbury,54.29714,-130.33678,0,190033
190034,Pillsbury at Bayview Manor,54.29623,-130.33888,0,190034
190032,Sloan at Smithers,54.2992,-130.33548,0,190032
190054,Pr Rupert Blvd at McRae Pl,54.31467,-130.29897,0,190054
190052,Pr Rupert Blvd at Pr George St,54.31218,-130.30041,0,190052
190081,Atlin at 17th,54.30079,-130.3481,0,190081
190082,Atlin at 1800 Blk,54.30244,-130.34542,0,190082
190075,Graham at Atlin,54.30431,-130.34342,0,190075
190083,Atlin at Graham,54.30391,-130.34308,0,190083
190086,2nd Ave at 5th,54.31231,-130.3274,0,190086
190076,Graham at 1900 Blk,54.30217,-130.34804,0,190076
190080,Atlin at 2090 Blk (EB),54.29973,-130.34943,0,190080
190018,3rd St at 2nd Ave W,54.31351,-130.32624,0,190018
190072,2nd Ave at Park Ave,54.30784,-130.335,0,190072
190041,4th St at 3rd Ave W,54.31239,-130.32601,0,190041
190066,11th Ave E at Alfred,54.31692,-130.30201,0,190066
190067,11th Ave E at Sherbrooke,54.31475,-130.30556,0,190067
190068,11th Ave E at Brett,54.31346,-130.30766,0,190068
190069,11th Ave E at Prince Rupert Blvd,54.31079,-130.3091,0,190069
190021,6th Ave W at Taylor,54.30848,-130.32573,0,190021
190106,7th St at 3rd Ave,54.31042,-130.32908,0,190106
190105,Prince Rupert Blvd at Prince George St,54.31204,-130.30077,0,190105
190108,Prince Rupert Blvd at Alberta Pl,54.31085,-130.30765,0,190108
190103,Frederick at Hays Cove,54.32236,-130.29466,0,190103
190104,Frederick at Hays Cove,54.32254,-130.29478,0,190104
190107,9th Avenue West at Lotbiniere St- PRMS,54.30877,-130.31901,0,190107
990000,Prince Rupert Garage,54.31321,-130.29755,0,990000
