stop_id,stop_name,stop_lat,stop_lon,wheelchair_boarding,stop_code
156083,Coast Hillcrest Hotel,50.99544,-118.1628,0,156083
156078,Oak Dr at Johnson Way,50.99293,-118.16085,0,156078
156076,Ramada Hotel,51.00982,-118.21054,0,156076
156077,Fairfield Inn & Suites,51.00957,-118.20956,0,156077
156099,Hwy 23 at Glacier Heights Estates,51.01601,-118.21284,0,156099
156074,Base Camp Resort,51.02136,-118.21319,0,156074
156073,Colbeck Rd at Pearkes Dr,51.01821,-118.21582,0,156073
156072,Pearkes Dr at Colbeck Rd,51.01331,-118.2191,0,156072
156075,Best Western Revelstoke,51.01038,-118.21934,0,156075
156079,Victoria St W at Mutas Rd,51.00871,-118.21491,0,156079
156081,Victoria Rd at Kootenay St,51.00569,-118.20477,0,156081
156082,Victoria Rd at Garden Ave,51.0026,-118.19958,0,156082
156011,MacKenzie Ave at 1st St - Grizzly Plaza,50.99899,-118.19496,0,156011
156097,3rd St E at Robson Ave,50.99564,-118.19372,0,156097
156084,4th St E at Temple St,50.9923,-118.19006,0,156084
156085,4th St E at Edward St,50.9905,-118.18704,0,156085
156050,4th St E at Simpson St,50.98764,-118.1834,0,156050
156052,Airport Way at Arrow Dr,50.97998,-118.18483,0,156052
156055,Nichol Rd at Beruschi Rd,50.97583,-118.18308,0,156055
156100,Coursler Ave at McKenzie Plaza,50.97653,-118.17324,0,156100
156086,Nichol Rd at Hay Rd,50.9758,-118.17004,0,156086
156087,Revelstoke Mountain Resort,50.95687,-118.16434,0,156087
156088,Nichol Rd at Hay Rd,50.97596,-118.16948,0,156088
156101,Coursler Ave at McKenzie Plaza,50.97666,-118.17306,0,156101
156056,Nichol Rd at Park Dr,50.97596,-118.17879,0,156056
156089,Nichol Rd at Beruschi Rd,50.97599,-118.18287,0,156089
156090,Airport Way at Arrow Dr,50.98003,-118.18457,0,156090
156051,4th St E at Simpson St,50.98719,-118.18311,0,156051
156091,4th St E at Edward St,50.99067,-118.18693,0,156091
156092,4th St E at Taylor St,50.99277,-118.19052,0,156092
156094,3rd St W at Connaught Ave,50.99843,-118.19808,0,156094
156095,3rd St W at Garden Ave,51.00088,-118.2022,0,156095
156067,3rd St W at Pearson St,51.00237,-118.20465,0,156067
156016,3rd St W at Charles St,51.0031,-118.20584,0,156016
156096,Douglas St at King St,51.00444,-118.21019,0,156096
156068,Douglas St at Hanson St,51.00541,-118.21193,0,156068
156065,Wright St at 2nd St W,51.00767,-118.21214,0,156065
156080,Victoria St W at Mutas Rd,51.00885,-118.21483,0,156080
156060,Best Western Revelstoke,51.01054,-118.21915,0,156060
156007,Pearkes Dr at Fairway Rd,51.01173,-118.22002,0,156007
156000,Pearkes Dr at Cleland Rd,51.0153,-118.21621,0,156000
156001,Colbeck Rd at Pearkes Dr,51.0181,-118.21592,0,156001
156003,Glacier Heights Estates,51.01609,-118.21303,0,156003
156002,Hwy 23 at Cleland Rd,51.01371,-118.21302,0,156002
156009,1st St W at Boyle Ave,51.00033,-118.19776,0,156009
156013,Boyle Ave at 3rd St W,50.99918,-118.20001,0,156013
156025,Revelstoke Seniors Centre,50.99719,-118.19966,0,156025
156062,McArthur Ave at 6th St E,50.99442,-118.19754,0,156062
156028,9th St E at McArthur Ave,50.99257,-118.19931,0,156028
156098,10th St E at Victoria St E,50.99037,-118.19738,0,156098
156036,Downie St at 8th St E,50.9893,-118.19264,0,156036
156038,Willow St at Downie St - Mt Begbie Manor,50.98735,-118.19473,0,156038
156041,Edward St at 8th St E,50.98913,-118.18975,0,156041
156042,Edward St at 4th St E,50.99059,-118.18756,0,156042
156043,Humbert St at 4th St E,50.99057,-118.18606,0,156043
156046,300 Blk Humbert St,50.99198,-118.18389,0,156046
156048,Leach St at Oscar St,50.99145,-118.17982,0,156048
156049,Leach St at Duchman Rd,50.98981,-118.18232,0,156049
156053,Newlands Rd at Airport Way,50.97697,-118.18547,0,156053
156054,Newlands Rd at Elm St,50.97697,-118.18971,0,156054
156063,Queen Victoria Hospital,50.97724,-118.19054,0,156063
156057,Park Dr at Arrow Heights Elementary,50.97676,-118.17818,0,156057
156058,Park Dr at Arrow Dr,50.97999,-118.17813,0,156058
156059,McKinnon Rd at Airport Way,50.98141,-118.18107,0,156059
156047,Oscar St at Leach St,50.99195,-118.17968,0,156047
156045,300 Blk Humbert St,50.99205,-118.18402,0,156045
156044,Humbert St at 4th St E,50.99094,-118.1857,0,156044
156040,Edward St at 8th St E,50.98817,-118.19153,0,156040
156039,Edward St at Willow St,50.9869,-118.19343,0,156039
156037,Downie St at Willow St,50.98775,-118.1947,0,156037
156034,8th St E at Temple St,50.99009,-118.19317,0,156034
156035,8th St E at Victoria St E,50.99163,-118.19571,0,156035
156030,9th St E at Robson Ave,50.99211,-118.19827,0,156030
156029,9th St E at McArthur Ave,50.99264,-118.19916,0,156029
156026,MacKenzie Ave at 8th St E,50.99492,-118.20086,0,156026
156012,Boyle St at 2nd St W,50.99956,-118.19913,0,156012
156010,Boyle Ave at Victoria Rd,51.00095,-118.19708,0,156010
156070,1st St W at Ford St,51.00354,-118.20309,0,156070
156064,1st St W at Benson St - Okanagan College,51.00755,-118.21026,0,156064
156020,Big Eddy Rd at Hwy 23,50.99771,-118.23056,0,156020
156021,Big Eddy Rd at Begbie Rd,50.99777,-118.22549,0,156021
156022,Begbie Rd at Illinisky Rd,50.99528,-118.22514,0,156022
156023,Griffiths Rd at Mercs Rd,50.99292,-118.22312,0,156023
156071,Lundell Rd at Griffiths Rd,50.99358,-118.22034,0,156071
156024,Lundell Rd at Illinisky Rd,50.99633,-118.22041,0,156024
156069,Nixon Rd at Landers Rd,51.00069,-118.22246,0,156069
156018,Douglas St at Benson St,51.00599,-118.21333,0,156018
156017,Douglas St at King St,51.00435,-118.21026,0,156017
156015,3rd St W at Ford St,51.00292,-118.20586,0,156015
156008,1st St W at Rokeby Ave,51.00125,-118.19948,0,156008
956000,Revelstoke Transit Centre,50.9989,-118.23039,0,956000
