stop_id,stop_name,stop_lat,stop_lon,wheelchair_boarding,stop_code
146229,Dawson & Main,49.47298,-119.5811,0,146229
146211,Duncan & Manitoba,49.4843,-119.58151,0,146211
146144,Government & Duncan,49.48552,-119.5781,0,146144
146143,Government & Bennett,49.48675,-119.57868,0,146143
146110,Duncan & Government,49.48488,-119.57858,0,146110
146151,Atkinson & Warren,49.47462,-119.58686,0,146151
146150,Atkinson & Okanagan,49.47657,-119.58768,0,146150
146171,Power & Westminster,49.49706,-119.60519,0,146171
146217,Wade & Caribou,49.49493,-119.6015,0,146217
146289,Prairie Valley at Atkinson,49.60296,-119.66794,0,146289
148000,Peach Orchard at Rosedale,49.60466,-119.67653,0,148000
140215,Queensway Exch (Kelowna),49.88713,-119.49494,0,140215
103744,Hwy 97 onramp at Westside Rd,49.8818,-119.53653,0,103744
140214,Westbank Exch,49.82972,-119.63041,0,140214
146243,Rosedale at Jubilee Rd E,49.603,-119.67786,0,146243
146221,Westminster & Power,49.49752,-119.60646,0,146221
140213,Westbank Exch,49.8283,-119.63061,0,140213
103745,Hwy 97 offramp at Sneena,49.88074,-119.53497,0,103745
146286,Prairie Valley,49.60268,-119.66647,0,146286
940002,Penticton Transit Centre,49.47589,-119.57692,0,940002
146280,Penticton Ave 1660 Blk,49.49036,-119.55474,0,146280
146157,Cherry Lane Shopping Centre,49.47372,-119.58583,0,146157
146051,Martin & Wade,49.49626,-119.59256,0,146051
146049,Martin & Lakeshore,49.50213,-119.59551,0,146049
146161,Warren & Atkinson (Cherry Lane),49.47439,-119.58613,0,146161
146042,Winnipeg & Wade,49.49667,-119.59461,0,146042
146233,Peachtree Square,49.46376,-119.58849,0,146233
146147,Gov't & Carmi (Penticton Hosp.),49.4823,-119.57623,0,146147
146045,Wade & Martin,49.49691,-119.59225,0,146045
146043,Winnipeg & Wade,49.49683,-119.5945,0,146043
146234,Peachtree Square,49.46381,-119.58879,0,146234
146103,Carmi & Balfour (Penticton Hosp.),49.48258,-119.57812,0,146103
146145,Government farside Carmi,49.48351,-119.57744,0,146145
146156,Dawson & Braelyn,49.47346,-119.57926,0,146156
103690,13th St & Lake,49.7827,-119.7231,0,103690
140222,Beach & 4th St (Peachland),49.77471,-119.735,0,140222
103689,13th St & Lake,49.78264,-119.72333,0,103689
140221,Beach & 4th St (Peachland),49.77475,-119.73523,0,140221
146231,Skaha Lk Rd before Waterford,49.46196,-119.5885,0,146231
146190,Duncan & Main,49.48378,-119.58502,0,146190
146192,Duncan & Main (Plaza),49.48392,-119.585,0,146192
146332,89 St & 97 St,49.02001,-119.46884,0,146332
146331,Nighthawk & 62 Ave,49.02532,-119.4715,0,146331
146330,Gravenstein & Jonagold Pl,49.03565,-119.46627,0,146330
146329,Quince Ln & Gravenstein Dr,49.03831,-119.46805,0,146329
146326,92 Ave & Jubilee,49.03862,-119.47338,0,146326
146316,Main & 89th St,49.03288,-119.46877,0,146316
146335,Bartlett Dr & Valiant Dr,49.49566,-119.62858,0,146335
146336,Sandstone Cres & Sandpiper Ln,49.50398,-119.63725,0,146336
146055,Winnipeg & Eckhardt,49.49267,-119.59237,0,146055
146054,Winnipeg & Orchard,49.49443,-119.59329,0,146054
146034,Wade & Winnipeg,49.4965,-119.59483,0,146034
146265,Vees & Wade,49.49418,-119.60285,0,146265
146334,Bartlett Dr & Russett Dr,49.49488,-119.62285,0,146334
146219,Main & Calgary (Penticton Plz),49.48496,-119.58642,0,146219
146278,Penticton Ave 1520 Blk,49.48915,-119.55837,0,146278
146277,Penticton Ave 1410 Blk,49.48986,-119.56243,0,146277
146200,Penticton Ave & McPherson,49.49037,-119.56507,0,146200
146197,Penticton Ave & Debeck,49.48999,-119.56885,0,146197
146112,Penticton Ave & Kensington,49.48913,-119.5735,0,146112
146128,Kilwinning & Nelson Ave,49.4905,-119.57519,0,146128
146104,Forestbrook & Kilwinning,49.49244,-119.57708,0,146104
146137,Government & Forestbrook,49.49197,-119.58025,0,146137
146094,Eckhardt & Haywood,49.49454,-119.58265,0,146094
146093,Eckhardt & Braid,49.49375,-119.58663,0,146093
146092,Eckhardt & Main,49.49311,-119.58915,0,146092
146154,Main & Padmore,49.49595,-119.59091,0,146154
146025,Main & Wade,49.49738,-119.59163,0,146025
146167,Main & Nanaimo,49.49912,-119.59255,0,146167
146166,Main & Westminster,49.50059,-119.59334,0,146166
146050,Martin & Nanaimo,49.49839,-119.59365,0,146050
146047,Wade & Martin,49.49684,-119.59314,0,146047
146188,Atkinson & Industrial,49.47898,-119.58848,0,146188
146187,Atkinson & Okanagan,49.47716,-119.58768,0,146187
146186,Atkinson &  Industrial,49.47895,-119.58832,0,146186
146160,Atkinson & Phoenix,49.48139,-119.58912,0,146160
146318,Penticton Plaza,49.48407,-119.58683,0,146318
146175,Calgary & Main,49.48586,-119.58775,0,146175
146173,Calgary & Fairview,49.4859,-119.59126,0,146173
146019,Conklin & Fairview,49.48657,-119.59214,0,146019
146038,Conklin & Argyle,49.48723,-119.59573,0,146038
146037,Conklin & Moosejaw,49.48783,-119.59902,0,146037
146212,Moosejaw & Douglas,49.48687,-119.59997,0,146212
146237,Skaha Lake Rd & Kinney,49.47139,-119.5832,0,146237
146325,Skaha Lake Rd & Green,49.46394,-119.58773,0,146325
146068,Skaha Lk Rd after Waterford,49.46009,-119.58862,0,146068
146071,Skaha Lake Rd & Guelph,49.4581,-119.58795,0,146071
146182,Skaha Lake Rd & Yorkton,49.45606,-119.5873,0,146182
146215,Skaha Lake Rd & Channel,49.45303,-119.59638,0,146215
146129,Wade & Van Horne,49.49739,-119.58969,0,146129
146023,Ellis & Nanaimo,49.49925,-119.59051,0,146023
146232,Green & Paris,49.46293,-119.59058,0,146232
146152,Atkinson before Warren,49.4747,-119.58705,0,146152
146259,Duncan & Fairview,49.48351,-119.59472,0,146259
146261,Duncan & Hastings,49.48441,-119.59723,0,146261
146264,Duncan & Moosejaw,49.48549,-119.59868,0,146264
146204,Carmi & Halifax (Health Unit),49.48254,-119.57511,0,146204
146028,MacCleave & Carmi,49.48377,-119.57292,0,146028
146155,MacCleave & Steward,49.48393,-119.56896,0,146155
146206,MacCleave & Pine,49.48427,-119.56434,0,146206
146210,Columbia & MacCleave,49.48347,-119.55977,0,146210
146207,Carmi & Columbia,49.48284,-119.55911,0,146207
146251,Carmi & Bracewell,49.48216,-119.55467,0,146251
146126,Cleland & Dewdney,49.4824,-119.55294,0,146126
146125,Cleland & McLean,49.48434,-119.5527,0,146125
146124,Cleland 120 Blk,49.48586,-119.55409,0,146124
146209,Allison & Cleland,49.48637,-119.55621,0,146209
146117,Duncan & Columbia,49.48675,-119.5599,0,146117
146198,Duncan & Pine,49.48659,-119.56529,0,146198
146030,Duncan & Hwy 97 (OK College),49.48706,-119.60439,0,146030
146108,Duncan & Church,49.48538,-119.57518,0,146108
146044,Winnipeg & Nanaimo,49.4981,-119.59516,0,146044
146226,Westminster & Winnipeg,49.49955,-119.59705,0,146226
146224,Westminster & Lakeview,49.49916,-119.59878,0,146224
146223,Westminster & Maple,49.49836,-119.60246,0,146223
146260,Duncan & Fairview,49.48342,-119.59509,0,146260
146159,Atkinson & Huth,49.48119,-119.5892,0,146159
146238,Main & McDougall,49.47417,-119.58284,0,146238
146342,S Main 2575 Blk,49.46876,-119.58097,0,146342
146084,Main & Rosetown,49.47927,-119.58425,0,146084
146083,Main & Granby,49.48147,-119.58501,0,146083
146080,Main & Penticton,49.48702,-119.58686,0,146080
146078,Main & Nelson,49.48871,-119.58743,0,146078
146075,Main & Jermyn,49.49019,-119.58797,0,146075
146074,Main & Eckhardt,49.49222,-119.58897,0,146074
146109,Duncan & King,49.48501,-119.57709,0,146109
146107,Duncan & Church,49.48537,-119.5746,0,146107
146269,Duncan & Ridgedale,49.48649,-119.56893,0,146269
146081,Main & Carmi,49.48305,-119.58581,0,146081
146066,Skaha Lake Rd & Green,49.46369,-119.58751,0,146066
146146,Government & Duncan,49.48424,-119.57786,0,146146
146185,Yorkton & Skaha Lake,49.45661,-119.58631,0,146185
146069,Skaha Lake Rd & Yorkton,49.45689,-119.58729,0,146069
146070,Skaha Lake Rd & Guelph,49.45844,-119.58785,0,146070
146067,Skaha Lk Rd before Waterford,49.46021,-119.58844,0,146067
146230,Skaha Lk Rd after Waterford,49.46152,-119.58839,0,146230
146012,Conklin & Fairview,49.48646,-119.59216,0,146012
146174,Calgary & Fairview,49.48579,-119.59089,0,146174
146029,Duncan & Hwy 97 (OK College),49.48662,-119.60401,0,146029
146218,Moosejaw & Douglas,49.48643,-119.59983,0,146218
146039,Conklin & Moosejaw,49.48767,-119.59882,0,146039
146252,Conklin & Argyle,49.487,-119.59518,0,146252
146176,Calgary & Main,49.48575,-119.58768,0,146176
146189,Penticton Plaza,49.48384,-119.58698,0,146189
146100,Manitoba & Duncan,49.48397,-119.58172,0,146100
146102,Carmi & Leir,49.48259,-119.5795,0,146102
146064,Winnipeg & Fairview,49.48961,-119.59077,0,146064
146203,Lower Debeck & Rushberry,49.59101,-119.58867,0,146203
146214,Naramata & Arawana,49.58732,-119.58024,0,146214
146282,Juniper 3360 Blk,49.58589,-119.57047,0,146282
146240,Debeck & Juniper,49.58929,-119.57261,0,146240
146241,Arawana & Debeck,49.58765,-119.57495,0,146241
146120,Naramata & Olhausen,49.53615,-119.56278,0,146120
146046,Wade & Martin,49.49677,-119.59296,0,146046
146052,Martin & Orchard,49.49469,-119.5917,0,146052
146082,Main & Granby,49.48146,-119.58517,0,146082
146013,Ellis & Westminster,49.5012,-119.59049,0,146013
146253,Vancouver & Van Horne,49.50305,-119.58979,0,146253
146096,Vancouver & Abbott,49.50305,-119.58735,0,146096
146095,Cambie & Guernsey,49.5028,-119.58367,0,146095
146194,Farrell & Johnson,49.49826,-119.58239,0,146194
146195,Johnson & Walden,49.49772,-119.58122,0,146195
146239,Johnson & Haven Hill,49.49773,-119.57978,0,146239
146101,Johnson & Truro,49.49764,-119.57566,0,146101
146256,Johnson & Hudson,49.4967,-119.56739,0,146256
146283,McMillan & N Upper Bench,49.51202,-119.56299,0,146283
146122,Naramata & Evans,49.52425,-119.55834,0,146122
146119,Naramata & Poplar Grove,49.5335,-119.56204,0,146119
146121,Naramata & Olhausen,49.53623,-119.56279,0,146121
146213,Arawana & Naramata,49.58737,-119.58002,0,146213
146048,Wade & Winnipeg,49.49655,-119.59402,0,146048
146149,Robinson & 3rd St,49.59775,-119.60072,0,146149
146072,Ellis & 5th St,49.59541,-119.59724,0,146072
146202,Ellis & 8th St,49.59532,-119.59346,0,146202
146118,Naramata & Todd,49.53251,-119.56195,0,146118
146123,Naramata & Evans,49.52427,-119.55868,0,146123
146162,Upper Bench & McMillan,49.51197,-119.56438,0,146162
146015,Vancouver & Cambie,49.50319,-119.58532,0,146015
146021,Winnipeg & Westminster,49.49943,-119.596,0,146021
146163,McGraw & Brandon,49.46638,-119.5881,0,146163
146285,Summerland Health Ctr,49.60163,-119.66895,0,146285
146153,Government & Warren,49.47651,-119.57442,0,146153
146293,7th Ave & Birch,49.34684,-119.56941,0,146293
146354,Birch & 9th Ave,49.34472,-119.57033,0,146354
146353,10th Ave & Maple,49.3438,-119.56881,0,146353
146352,McLean Creek & Walnut Cres,49.34238,-119.5656,0,146352
146351,McLean Creek & Cherry Cres,49.34085,-119.56464,0,146351
146350,Mallory Cres Loop,49.33908,-119.55873,0,146350
146349,McLean Creek & Cherry Cres,49.3411,-119.56458,0,146349
146348,McLean Creek & Walnut Cres,49.34241,-119.56549,0,146348
146347,10th Ave & Maple,49.3439,-119.5688,0,146347
146346,Birch & 9th Ave,49.34508,-119.57014,0,146346
146296,Main & 10th Ave,49.34394,-119.57156,0,146296
146295,Main & 11th Ave,49.34278,-119.57161,0,146295
146344,Willow & 12th Ave,49.34217,-119.57293,0,146344
146345,11th Ave & Cedar,49.34302,-119.57553,0,146345
146294,Cedar St & 9th Ave,49.34482,-119.57559,0,146294
146343,OK Falls Post Office,49.34554,-119.57686,0,146343
146291,7th Ave & Cedar,49.34688,-119.57512,0,146291
146292,7th Ave & Hody Dr,49.34679,-119.56956,0,146292
149000,Kootenay St at Co-op Ave,49.17985,-119.55237,0,149000
149001,Kootenay St & Co-op Ave,49.17982,-119.5527,0,149001
146322,Kaleden: Lakehill & Linden,49.3907,-119.59682,0,146322
146191,Duncan & Manitoba,49.48429,-119.58234,0,146191
146281,Hwy 97 at Eckhardt (King's Park),49.49192,-119.60341,0,146281
146036,Wade & Haynes,49.49588,-119.59715,0,146036
146216,Wade & Maurice,49.49522,-119.6006,0,146216
146262,Duncan & Moosejaw,49.48571,-119.59965,0,146262
146263,Duncan & Hastings,49.48468,-119.59774,0,146263
146199,McGraw & Kinney,49.47084,-119.58978,0,146199
146328,Cottonwood Dr & Cottonwood Park,49.03158,-119.44801,0,146328
146327,Main & Cottonwood Dr,49.0291,-119.44867,0,146327
146114,Edgewood & Kensington,49.48707,-119.57099,0,146114
146113,Edgewood & Penticton Ave,49.48943,-119.57063,0,146113
146196,Penticton Ave & Debeck,49.48985,-119.56885,0,146196
146275,Penticton Ave & McPherson,49.49041,-119.56404,0,146275
146276,Penticton Ave 1410 Blk,49.48984,-119.56262,0,146276
146279,Penticton Ave 1480 Blk,49.48881,-119.55958,0,146279
146324,Cambie & Westminster,49.50083,-119.58379,0,146324
146014,Middle Bench Rd S & Andrew,49.49837,-119.57411,0,146014
146165,Westminster & Middle Bench Rd S,49.50055,-119.57431,0,146165
146164,Westminster & Grandview,49.50057,-119.57993,0,146164
146227,Grandview & Lower Bench,49.50377,-119.57999,0,146227
146228,Abbott & Guernsey,49.50202,-119.58786,0,146228
146193,Jermyn 230 Blk,49.49163,-119.5855,0,146193
146236,Skaha Lake Rd & Brandon,49.46638,-119.58626,0,146236
146172,Power & Westminster,49.4972,-119.60512,0,146172
146222,Westminster & Maple,49.49829,-119.60236,0,146222
146225,Westminster & Haynes,49.49909,-119.59876,0,146225
146053,Winnipeg & Orchard,49.4944,-119.59343,0,146053
146062,Winnipeg & Eckhardt,49.49192,-119.59214,0,146062
146063,Winnipeg & Fairview,49.48935,-119.59083,0,146063
146057,Fairview & Conklin,49.48657,-119.59155,0,146057
146183,Yorkton & Skaha Lake Rd,49.4565,-119.58671,0,146183
146090,Yorkton & Wilson,49.45653,-119.58308,0,146090
146088,Yorkton & S Main,49.45662,-119.57898,0,146088
146257,Main & Warren,49.47632,-119.58329,0,146257
146086,Main & Okanagan,49.47769,-119.58375,0,146086
146258,Main & Warren,49.47635,-119.58345,0,146258
146041,Naramata & Lower Debeck,49.59115,-119.57893,0,146041
146091,Robinson & Salting,49.59681,-119.59052,0,146091
146337,W Bench Dr & Bartlett Dr,49.49721,-119.62974,0,146337
146338,W Bench Dr & Newton,49.5025,-119.63033,0,146338
146339,W Bench Dr & Jonathan Dr,49.50692,-119.62956,0,146339
146340,Hyslop & West Bench,49.50881,-119.62672,0,146340
146341,Sage Mesa Dr & Pine Hills Dr,49.51568,-119.6225,0,146341
146333,Winnipeg & Wade,49.49628,-119.59447,0,146333
146290,Wharton at Kelly,49.60097,-119.67987,0,146290
146242,Victoria Rd N at Jubilee,49.60285,-119.68352,0,146242
146284,Wharton at Kelly,49.60086,-119.67986,0,146284
146287,May at Nixon,49.57309,-119.62498,0,146287
146288,Johnson & Cordy,49.57201,-119.62989,0,146288
149002,Oliver Hospital,49.18361,-119.53894,0,149002
146247,Riverside & Dynes,49.49924,-119.61237,0,146247
146250,Lakeshore & Sydney,49.50139,-119.6093,0,146250
146031,Lakeshore & Power,49.50139,-119.60512,0,146031
146032,Lakeshore 380 Blk,49.50178,-119.59999,0,146032
146033,Lakeshore & Winnipeg,49.50205,-119.59782,0,146033
146040,Skaha Lake Rd & Beach,49.45403,-119.59065,0,146040
146024,Nanaimo & Ellis,49.49907,-119.59092,0,146024
146076,Main & Jermyn (Library),49.49071,-119.58842,0,146076
146077,Main & Nelson,49.48856,-119.58757,0,146077
146079,Main & Penticton,49.48671,-119.58694,0,146079
146085,Main & Rosetown,49.47933,-119.58445,0,146085
146087,Main & Okanagan,49.47756,-119.58384,0,146087
146270,S Main & Yorkton,49.45717,-119.57855,0,146270
146089,Yorkton &  S Main,49.45672,-119.57941,0,146089
146099,S Main & Green,49.46613,-119.58008,0,146099
146184,Yorkton & Wilson,49.45665,-119.58409,0,146184
146016,Lakeshore & Front,49.50265,-119.59167,0,146016
146273,S Main 2910 Blk (Seniors' Ctr),49.46408,-119.57943,0,146273
146255,S Main 3090 Blk,49.46228,-119.57885,0,146255
146323,S Main & Caravilla Estates,49.46035,-119.57825,0,146323
146022,Lakeshore & Main,49.50259,-119.59384,0,146022
146205,Ridgedale & Kendall,49.48722,-119.568,0,146205
146115,Ridgedale & Columbia,49.48761,-119.5598,0,146115
146116,Ridgedale & Charles,49.48968,-119.55361,0,146116
146127,Duncan & Ridgedale,49.49114,-119.54959,0,146127
146208,Duncan & Wellington,49.48802,-119.55601,0,146208
146298,Eastside & 6th Ave,49.34757,-119.56747,0,146298
146300,Eastside & 6th Ave,49.35271,-119.56666,0,146300
146301,Eastside & Philpott,49.37313,-119.56475,0,146301
146303,Eastside &  Panorama Cres,49.37474,-119.5639,0,146303
146305,Eastside & Carmel Cres,49.3769,-119.56191,0,146305
146308,Eastside & Devon,49.38103,-119.56062,0,146308
146310,Eastside & Highland Dr,49.39801,-119.56514,0,146310
146268,S Main & Pineview,49.46882,-119.58079,0,146268
146274,S Main 2930 Blk (Seniors' Ctr),49.46409,-119.57926,0,146274
146098,S Main & Green,49.46593,-119.57983,0,146098
146271,S Main 3410 Blk,49.45943,-119.5778,0,146271
146254,S Main 3080 Blk,49.46236,-119.5787,0,146254
146309,Eastside & Highland Dr,49.39808,-119.56502,0,146309
146314,Heritage Blvd & One Quail Pl,49.39615,-119.55369,0,146314
146311,Sunnybrook & Highland,49.39908,-119.56,0,146311
146312,Heritage Blvd & Vintage Blvd,49.39836,-119.55532,0,146312
146313,Heritage Blvd & One Quail Pl,49.39613,-119.5538,0,146313
146315,Heritage Blvd & Heritage Hills,49.39407,-119.55282,0,146315
146297,Eastside & 6th Ave,49.34757,-119.56736,0,146297
146299,Eastside & 6th Ave,49.35282,-119.56656,0,146299
146302,Eastside & Philpott,49.37293,-119.56471,0,146302
146304,Eastside &  Panorama Cres,49.37481,-119.56374,0,146304
146306,Eastside & Carmel Cres,49.37705,-119.56166,0,146306
146307,Eastside & McLean Creek,49.38089,-119.56049,0,146307
146220,Westminster & Wylie,49.49602,-119.61326,0,146220
146266,Power & Wade,49.49552,-119.60324,0,146266
146061,Green & Wilson,49.46317,-119.58747,0,146061
146058,Green & Eraut,49.46378,-119.5826,0,146058
146001,Pineview & Corry,49.469,-119.5763,0,146001
146002,Pineview & Taber,49.4693,-119.57371,0,146002
146003,Dartmouth & Balsam,49.47,-119.57117,0,146003
146004,Dartmouth & Wiltse,49.47111,-119.57111,0,146004
146008,Dartmouth & Dartmouth,49.47676,-119.56916,0,146008
146244,Warren & Main,49.47551,-119.58211,0,146244
146105,Warren 200 Blk,49.47548,-119.57992,0,146105
146106,Warren & Camrose,49.4759,-119.57584,0,146106
146009,Government & Warren,49.47657,-119.57419,0,146009
146010,Government & Okanagan,49.47825,-119.57474,0,146010
146178,McGraw & McCulloch,49.46944,-119.58928,0,146178
146179,McGraw & McKenzie,49.46689,-119.58842,0,146179
146248,Churchill & Sydney,49.50028,-119.60921,0,146248
146170,Churchill & Power,49.50025,-119.60624,0,146170
146168,Churchill 600 Blk,49.50039,-119.6031,0,146168
146169,Churchill & Lakeview,49.50069,-119.5999,0,146169
146020,Winnipeg & Churchill,49.50088,-119.59681,0,146020
146130,Wade & Ellis,49.49726,-119.58995,0,146130
146132,Wade & Braid,49.49726,-119.58741,0,146132
146133,Government & Burns,49.49655,-119.5846,0,146133
146134,Government & White,49.49576,-119.5828,0,146134
146136,Government & Gahan,49.49366,-119.5812,0,146136
146138,Government & Forestbrook,49.49143,-119.58026,0,146138
146140,Government & Nelson,49.48907,-119.57946,0,146140
146148,Gov't & Carmi (Penticton Hosp.),49.48229,-119.57656,0,146148
146000,Government & Okanagan,49.47824,-119.575,0,146000
146017,Dartmouth & Wiltse,49.47216,-119.57115,0,146017
146005,Stevens & Wiltse,49.47445,-119.56531,0,146005
146006,Stevens & Stevens,49.4729,-119.56679,0,146006
146007,Wiltse Blvd & Wiltse Dr,49.4715,-119.5687,0,146007
146018,Pineview & Dartmouth,49.46965,-119.57153,0,146018
146111,Pineview & Dafoe,49.4691,-119.57701,0,146111
146059,Green & Eraut,49.464,-119.58201,0,146059
146060,Green & Wilson,49.46332,-119.58688,0,146060
146142,Government & Municipal,49.48654,-119.57843,0,146142
146141,Government & Edna,49.48862,-119.57916,0,146141
146139,Government & Edmonton Ave,49.49057,-119.57978,0,146139
146135,Government & White,49.49562,-119.58234,0,146135
146201,Wade & Ellis,49.49732,-119.59098,0,146201
146035,Wade & Tennis,49.49612,-119.59651,0,146035
146267,Westminster & Burnaby,49.49692,-119.60917,0,146267
146245,Riverside & Eckhardt,49.49595,-119.61599,0,146245
146246,Riverside & Burnaby,49.4983,-119.61394,0,146246
146177,McGraw & McGraw,49.46925,-119.58908,0,146177
146065,Kinney & McGraw,49.4712,-119.58895,0,146065
946000,Summerland Public Works Facility,49.58522,-119.6778,0,946000
946001,Osoyoos Public Works Facility,49.03857,-119.49866,0,946001
146361,Skaha Lake & Galt,49.4685,-119.58493,0,146361
146363,Skaha Lake & Brandon,49.46625,-119.58596,0,146363
146360,Skaha Lake & Galt,49.46969,-119.58396,0,146360
146362,Skaha Lake & Kinney,49.47132,-119.58292,0,146362
146365,Vancouver & Abbott,49.50317,-119.58836,0,146365
146368,Westminster at Wylie,49.49611,-119.61234,0,146368
146369,Westminster at Burnaby,49.49692,-119.60866,0,146369
146367,Government at Papineau,49.49709,-119.58616,0,146367
