stop_id,stop_name,stop_lat,stop_lon,wheelchair_boarding,stop_code
144124,25 Ave & 18 St,50.26015,-119.25485,0,144124
144126,15 St & 21 Ave,50.25789,-119.25117,0,144126
144127,15 St & 14 Ave,50.25225,-119.25113,0,144127
144173,31 St & 16 Ave,50.25349,-119.27125,0,144173
144174,31 St & 21 Ave,50.2556,-119.27122,0,144174
144175,21 Ave & 31A St,50.25639,-119.27251,0,144175
144134,26 St & 24 Ave,50.25951,-119.26529,0,144134
144135,26 St & 25 Ave,50.26056,-119.2653,0,144135
144300,58 Ave & 2400 Block,50.28917,-119.26058,0,144300
144306,Anderson Way & 5600 Block,50.28863,-119.26756,0,144306
144309,29 St & 48 Ave,50.28126,-119.2701,0,144309
144065,29 St & 45 Ave,50.27873,-119.27012,0,144065
144107,Alexis Park & 39 Ave,50.26977,-119.28475,0,144107
144108,Alexis Park & 32 Ave,50.26567,-119.28438,0,144108
144002,Hwy 6 2600 block,50.25997,-119.26966,0,144002
144003,Kal Lake & 18 Ave,50.25442,-119.26261,0,144003
144004,Kal Lake & 11 Ave,50.25057,-119.26251,0,144004
144005,11 Ave & Kalamalka Lake,50.24951,-119.26182,0,144005
144261,McClounie 7800 block,50.22341,-119.2482,0,144261
144262,McClounie & Tassie,50.22167,-119.2482,0,144262
144023,Coldstream Creek & Cunliffe,50.2201,-119.25627,0,144023
144024,Cunliffe & Linden,50.22268,-119.25656,0,144024
144026,Kalamalka & Kalavista,50.22978,-119.26188,0,144026
144027,Kalamalka & Kalavista,50.23071,-119.26396,0,144027
144225,Pleasant Valley & Stickle,50.2977,-119.2528,0,144225
144286,Pleasant Valley & 48 Ave,50.28241,-119.25375,0,144286
144230,Hwy 97A & Creamery,50.45474,-119.16569,0,144230
144186,27 Ave & Alvaston,50.25659,-119.30852,0,144186
144187,Allenby & 27 Ave,50.25558,-119.31044,0,144187
144208,Lakeshore 27 20 blck,50.24545,-119.34525,0,144208
144209,Lakeshore 2630 blck,50.24335,-119.34342,0,144209
144211,Okanagan Landing 6880 blck,50.23967,-119.33753,0,144211
144301,Ok Landing & W Okanagan,50.24052,-119.33469,0,144301
144216,25 Ave 5310 block,50.25531,-119.30722,0,144216
144217,25 Ave 4900 block,50.25715,-119.30381,0,144217
144222,27 Ave & 39 St,50.26157,-119.28663,0,144222
144223,27 Ave & 37 St,50.26158,-119.28323,0,144223
144224,27 Ave & 35 St,50.26157,-119.28042,0,144224
144176,23 Ave & 33 St,50.25834,-119.27475,0,144176
144275,Downtown Exchange,50.26454,-119.27103,0,144275
144112,32 Ave & 27 St,50.26528,-119.26615,0,144112
144113,Pleasant Valley  3300 blck,50.2662,-119.26222,0,144113
144115,Pleasant Valley & 39 Ave,50.26957,-119.25979,0,144115
144053,39 Ave & Pleasant Valley,50.2701,-119.25827,0,144053
144116,39 Ave & 17 St,50.27007,-119.2543,0,144116
144118,12 St & 39 Ave,50.26987,-119.2478,0,144118
144120,35 Ave & 14 St,50.2675,-119.25026,0,144120
144121,35 Ave & 16 St,50.2675,-119.25208,0,144121
144122,32 Ave & 17 St,50.26542,-119.25454,0,144122
144123,18 St & 30 Ave,50.26458,-119.25537,0,144123
144128,Pottery & 18 St,50.25471,-119.25598,0,144128
144130,18 St & 23 Ave,50.25745,-119.25522,0,144130
144131,23 Ave & 21 St,50.25796,-119.25848,0,144131
144133,23 Ave & 26 St,50.25838,-119.26438,0,144133
144038,Downtown Exchange,50.26463,-119.27176,0,144038
144178,27 Ave & 35 St,50.26171,-119.28037,0,144178
144179,27 Ave & 37 St,50.26172,-119.28367,0,144179
144279,27th & 39th,50.26171,-119.28689,0,144279
144180,27 Ave & 41 St,50.2617,-119.29107,0,144180
144181,27 Ave & 42 St,50.26166,-119.29375,0,144181
144183,27 Ave 4500 block,50.26082,-119.29957,0,144183
144184,27 Ave 4800 block,50.2593,-119.30326,0,144184
144189,Allenby & Prospect,50.25888,-119.31097,0,144189
144310,Heritage Dr & Allenby Way,50.26066,-119.31041,0,144310
144311,Heritage Dr & Lardeau Way,50.2596,-119.30703,0,144311
144312,Heritage Dr & 5000 Block,50.26013,-119.30409,0,144312
144313,Heritage Dr & Bella Vista Rd,50.26239,-119.30146,0,144313
144250,Bella Vista & Allenby Way,50.26297,-119.30594,0,144250
144199,27 Ave & Allenby,50.25417,-119.31067,0,144199
144200,Okanagan Landing & OKeefe,50.25234,-119.31312,0,144200
144201,Okanagan Landing & Willow Park,50.24992,-119.31759,0,144201
144202,Tronson & Scott,50.24924,-119.32318,0,144202
144203,Palmer & Tronson,50.24883,-119.33238,0,144203
144204,Scott 6640 blk,50.24948,-119.33779,0,144204
144206,Tronson 6900 blck,50.24848,-119.34339,0,144206
144207,Lakeshore & Tronson,50.24845,-119.3477,0,144207
144210,Lakeshore & Okanagan Landing,50.23972,-119.34107,0,144210
144212,Okanagan Landing & Dallas,50.24508,-119.32622,0,144212
144213,Okanagan Landing 6120 blck,50.24739,-119.32194,0,144213
144214,Okanagan Landing 5870 blck,50.25016,-119.31678,0,144214
144215,Okanagan Landing & Fulton,50.25181,-119.31379,0,144215
144218,43 St & 25 Ave,50.25933,-119.29651,0,144218
144219,27 Ave & 43 St,50.2614,-119.29607,0,144219
144220,27 Ave & 42nd St,50.26152,-119.29374,0,144220
144221,27 Ave & 40 St,50.26156,-119.29056,0,144221
144111,30 Ave & 35 St,50.26374,-119.27851,0,144111
144074,"30 Ave, 3600 blk",50.26386,-119.28203,0,144074
144075,(-DCOM-) 30th & 37th,50.26385,-119.28446,0,144075
144248,30 Ave & 39th,50.26383,-119.28857,0,144248
144249,Bella Vista & Agnew,50.26289,-119.29985,0,144249
144193,Heritage & Bella Vista,50.26223,-119.3017,0,144193
144196,Heritage 5060 block,50.26004,-119.30482,0,144196
144197,(-DCOM-) Heritage & Lardeau,50.25969,-119.30693,0,144197
144190,Allenby & Heritage,50.26099,-119.31038,0,144190
144191,Allenby & Bella Vista,50.26211,-119.31017,0,144191
144251,Bella Vista & Crosby,50.26023,-119.31769,0,144251
144252,Bella Vista & Dunsmuir,50.25964,-119.32237,0,144252
144253,Bella Vista & Sunnyview,50.2578,-119.33182,0,144253
144254,Lakeridge & Bella Vista,50.25407,-119.34459,0,144254
144255,Lakeridge 7100 blck,50.25211,-119.35093,0,144255
144256,Lakeridge & Bella Vista,50.25244,-119.35414,0,144256
144257,Tronson & Bella Vista,50.2494,-119.35885,0,144257
144258,Tronson & Old Stamp Mill,50.25003,-119.35241,0,144258
144000,Downtown Exchange,50.26461,-119.27204,0,144000
144049,39 Ave & 26 St,50.27012,-119.26593,0,144049
144050,39 Ave & 25 St,50.27009,-119.26405,0,144050
144052,39 Ave & 22 St,50.27008,-119.26025,0,144052
144054,20 St 3900 block,50.27175,-119.25841,0,144054
144055,20 St & 43 Ave,50.27444,-119.25839,0,144055
144056,43 Ave & 18 St,50.27469,-119.2561,0,144056
144057,43 Ave 20 block,50.2747,-119.25284,0,144057
144058,Pleasant Valley & 16 St,50.27678,-119.25243,0,144058
144059,Pleasant Valley & 46 Ave,50.27878,-119.25472,0,144059
144060,Pleasant Valley & 47 Ave,50.28038,-119.25476,0,144060
144169,20 St & 50 Ave,50.28382,-119.25841,0,144169
144171,20 St & 55 Ave,50.28625,-119.25845,0,144171
144303,27 St & 53 Ave,50.28508,-119.26678,0,144303
144097,23 St & 48 Ave,50.28134,-119.26246,0,144097
144298,46th & 25th,50.27884,-119.26408,0,144298
144100,25 St & 43 Ave,50.27529,-119.26438,0,144100
144068,27 St & 41 Ave,50.27227,-119.26671,0,144068
144069,27 St & 39 Ave,50.27073,-119.26671,0,144069
144277,Downtown Exchange,50.26453,-119.2721,0,144277
144282,33 St & 37 Ave,50.26864,-119.27505,0,144282
144045,33 St & 38 Ave,50.26982,-119.27503,0,144045
106017,29th St & 41 Ave,50.27269,-119.26997,0,106017
144084,29 St & 43 Ave,50.27548,-119.26992,0,144084
144087,29 St & 48 Ave,50.28148,-119.2699,0,144087
144318,Village Green Centre,50.28317,-119.27032,0,144318
144308,27 St & 53 Ave,50.28553,-119.2664,0,144308
144093,58 Ave & 24 St,50.28856,-119.2622,0,144093
144094,58 Ave NS 20 St,50.28907,-119.25999,0,144094
144095,20 St & 55 Ave,50.28576,-119.25862,0,144095
144096,20 St & 50 Ave,50.28281,-119.25861,0,144096
144062,48 Ave & 20 St,50.28205,-119.2594,0,144062
144064,48 Ave & 27 St,50.2821,-119.26588,0,144064
144297,48th & 29th,50.28207,-119.26869,0,144297
144066,29 St & 44 Ave,50.27683,-119.27011,0,144066
144307,29 St & 41 Ave,50.27263,-119.27011,0,144307
144071,39 Ave & 31 St,50.27017,-119.27213,0,144071
144269,39 Ave & 33 St,50.26977,-119.2752,0,144269
144072,33 St & 37 Ave,50.26814,-119.27519,0,144072
144073,33 St & 33 Ave,50.26591,-119.27522,0,144073
144037,Downtown Exchange,50.26462,-119.27123,0,144037
144283,34 St & Coldstream,50.26305,-119.27709,0,144283
144278,34 St & 27 Ave,50.26158,-119.27689,0,144278
144136,34 St & 24 Ave,50.25971,-119.27628,0,144136
144165,Mission & 19 Ave,50.25548,-119.27664,0,144165
144167,16 Ave & 32 St,50.25312,-119.27427,0,144167
144168,College Way & Hwy 97,50.23806,-119.28105,0,144168
144170,Okanagan College,50.23534,-119.28146,0,144170
144177,34 St & 24 Ave,50.25973,-119.27613,0,144177
144164,34 St & 27 Ave,50.26154,-119.27669,0,144164
144272,31 Ave & 34 St,50.26453,-119.27606,0,144272
144276,Downtown Exchange,50.26453,-119.27168,0,144276
144040,Centennial & 35 St,50.2654,-119.27947,0,144040
144304,Centennial Dr & 3301 Block,50.26702,-119.28109,0,144304
144076,Alexis Park & 32 Ave,50.2654,-119.28417,0,144076
144077,Alexis Park & 35 Ave,50.26721,-119.28445,0,144077
144079,Alexis Park & Turtle Mountain,50.27132,-119.28393,0,144079
144081,Alexis Park & 42 Ave,50.27383,-119.28224,0,144081
144082,43 Ave & 35 St,50.27468,-119.28036,0,144082
144083,43 Ave & 34 St,50.27452,-119.27642,0,144083
144319,Village Green Centre,50.28306,-119.27032,0,144319
144089,Anderson 4960 block,50.28374,-119.27361,0,144089
144092,Anderson 5530 block,50.28843,-119.26804,0,144092
144305,Anderson Way & 5000 Block,50.28361,-119.27372,0,144305
144102,43 Ave & 34 St,50.27472,-119.27587,0,144102
144103,43 Ave & 35 St,50.27477,-119.27799,0,144103
144104,Alexis Park & 42 Ave,50.27423,-119.28215,0,144104
144106,Alexis Park & 40 Ave,50.27258,-119.28323,0,144106
144109,30 Ave & 37 St,50.26377,-119.28342,0,144109
144110,"30 Ave, 3600 blk",50.26377,-119.28176,0,144110
144137,24 Ave & 34A St,50.25934,-119.27895,0,144137
144139,24 Ave & 39 St,50.25901,-119.28753,0,144139
144140,24 Ave 4060 block,50.25845,-119.29208,0,144140
144141,24 Ave & 43 St,50.25805,-119.29506,0,144141
144142,43 St 2180 block,50.25689,-119.29798,0,144142
144143,43 St & 19 Ave,50.25573,-119.29945,0,144143
144144,43 St & 16 Ave,50.25318,-119.30267,0,144144
144146,S Vernon & S Vernon,50.25045,-119.30536,0,144146
144147,Okanagan & S Vernon,50.25,-119.30332,0,144147
144148,Okanagan 4900 blck,50.25243,-119.30036,0,144148
144149,Okanagan & Bellevue,50.25593,-119.29447,0,144149
144151,Okanagan & 40 St,50.25637,-119.29001,0,144151
144153,Okanagan & 38 St,50.25737,-119.28331,0,144153
144154,Okanagan & 36 St,50.25726,-119.28017,0,144154
144155,21 Ave & 36 St,50.25687,-119.28183,0,144155
144156,21 Ave & 22 Ave,50.2562,-119.28403,0,144156
144157,21 Ave & 39 St,50.25565,-119.28654,0,144157
144158,17 Ave & 21 Ave,50.25441,-119.28869,0,144158
144159,17 Ave 3960 block,50.25469,-119.28621,0,144159
144161,17 Ave & 36 St,50.25458,-119.28064,0,144161
144162,35 St & 15 Ave,50.253,-119.2809,0,144162
144259,Mission & 16 Ave,50.25345,-119.27789,0,144259
144163,34 St & 21 Av,50.25662,-119.27616,0,144163
144008,Middleton & 11 Ave,50.24744,-119.25565,0,144008
144009,Middleton & Kosmina,50.24963,-119.2514,0,144009
144010,Sarsons 120 blck,50.2499,-119.24943,0,144010
144011,Sarsons & Sarsons,50.24459,-119.2391,0,144011
144012,Sarsons 370 blck,50.23795,-119.23587,0,144012
144013,Middleton & Aberdeen,50.23647,-119.23044,0,144013
144014,Aberdeen & Venables,50.23236,-119.22834,0,144014
144015,Aberdeen & Paisley,50.22882,-119.22833,0,144015
144016,Aberdeen 8450 block,50.22737,-119.22831,0,144016
144017,Aberdeen & Wisbey,50.22457,-119.22833,0,144017
144018,Kalamalka & Bonavista,50.22373,-119.23104,0,144018
144019,Kalamalka & Whetzell,50.22408,-119.2362,0,144019
144020,Kalamalka & McClounie,50.22533,-119.24609,0,144020
144021,Coldstream Creek & McClounie,50.22011,-119.24889,0,144021
144022,Coldstream Creek & Tassie,50.22011,-119.25323,0,144022
144025,Kidston & Sage,50.22461,-119.25564,0,144025
144260,Kidston & Torrent,50.22607,-119.25455,0,144260
144263,Kalamalka & Kidston,50.22756,-119.25549,0,144263
144029,Kal Lake & Kalamalka,50.23733,-119.26661,0,144029
144030,Kal Lake at Kalamalka,50.23835,-119.26643,0,144030
144031,Kal Lake & Browne,50.24772,-119.26236,0,144031
144033,Kal Lake & 14 Ave,50.25194,-119.2623,0,144033
144034,Kal Lake & 19 Ave,50.25525,-119.26232,0,144034
144035,Hwy 6 2580 block,50.25997,-119.26943,0,144035
144316,Ricardo & Hwy 6,50.22425,-119.18735,0,144316
544010,Lavington Market,50.236,-119.10876,0,544010
544008,Learmouth & Park,50.22773,-119.08652,0,544008
144246,Whitevale & Horner,50.22004,-118.99998,0,144246
144247,Shuswap & Vernon,50.24693,-118.96592,0,144247
144266,Norris & Glencaird,50.25041,-118.96294,0,144266
103680,Aerospace Dr & Airport Way,49.9521,-119.38314,0,103680
103569,Airport 5610 block,49.95584,-119.38148,0,103569
103604,Airport Way & Aerospace,49.96414,-119.38177,0,103604
103610,6240 Blk Airport Way,49.96948,-119.38342,0,103610
144274,Downtown Exchange,50.26453,-119.27129,0,144274
544006,Lavington Market,50.23625,-119.10883,0,544006
144317,Ricardo & Hwy 6,50.22322,-119.18698,0,144317
103655,Hwy 97 & Okanagan Centre,50.0218,-119.40668,0,103655
544009,Shuswap & Hwy 6,50.24694,-118.96616,0,544009
144281,Whitevale & Horner,50.22026,-119.00505,0,144281
544007,Learmouth & Park,50.22787,-119.08652,0,544007
144293,Hwy 97A & Creamery,50.45519,-119.165,0,144293
144292,Smith & Pleasant Valley,50.44656,-119.18437,0,144292
144237,Rosedale & Smith,50.44177,-119.18479,0,144237
144239,Becker & Rosedale,50.44172,-119.19721,0,144239
144240,Becker & Willowdale,50.44584,-119.1972,0,144240
144241,Patterson & Okanagan,50.44683,-119.19404,0,144241
144270,Wood & Adair,50.44875,-119.2042,0,144270
144242,Pleasant Valley & Park,50.44562,-119.20036,0,144242
144243,Pleasant Valley & Warner,50.44271,-119.20303,0,144243
144244,Pleasant Valley & Rosedale,50.44129,-119.20572,0,144244
144245,Pleasant Valley & Patten,50.43954,-119.20582,0,144245
144227,Pleasant Valley & Palisades,50.40109,-119.21757,0,144227
544005,Pleasant Valley & Hwy 97A,50.33221,-119.24028,0,544005
144226,Pleasant Valley 6920 blck,50.30943,-119.24548,0,144226
144287,Pleasant Valley & Silver Star,50.28239,-119.25343,0,144287
144290,Pleasant Valley & Herry,50.3094,-119.24528,0,144290
544004,Pleasant Valley & Hwy 97A,50.33225,-119.24021,0,544004
544001,Pleasant Valley & Patten,50.43953,-119.20567,0,544001
144228,Pleasant Valley & Okanagan,50.44787,-119.19479,0,144228
144315,Heaton Place,50.44425,-119.19353,0,144315
144229,Smith 3200 blck,50.44545,-119.18403,0,144229
144320,48th & 29th,50.28195,-119.26855,0,144320
144321,Pelmewash Pkwy & Irvine,50.11103,-119.38766,0,144321
140160,Innovation & University,49.943,-119.39048,0,140160
140104,UBCO Exchange,49.93958,-119.39462,0,140104
140159,Innovation Dr & University,49.94264,-119.39062,0,140159
104916,Innovation & Airport Way,49.95167,-119.38969,0,104916
103654,Hwy 97 & Beaver Lake,50.0208,-119.4062,0,103654
144322,Pelmewash Pkwy & Oyama,50.1111,-119.38734,0,144322
144323,48 Ave & Pleasant Valley,50.28203,-119.25507,0,144323
144328,12th St & 36th Ave,50.26802,-119.24778,0,144328
144325,39th Ave & 30th St,50.27002,-119.27145,0,144325
144326,29th St & 39th Ave,50.27069,-119.26995,0,144326
144327,29th St & 39th Ave,50.27058,-119.27014,0,144327
940001,Vernon Transit Centre,50.25799,-119.29469,0,940001
144331,Sarsons Rd & 216 Blck,50.24636,-119.24046,0,144331
144264,30 Ave & 29 St,50.26369,-119.26809,0,144264
144332,18 St & 28 Ave,50.26244,-119.25539,0,144332
144334,Hwy 97A & King,50.54706,-119.14028,0,144334
144340,Rosedale & Okanagan,50.44164,-119.19065,0,144340
144339,Heaton Place,50.44395,-119.19467,0,144339
144330,Pelmewash Pkwy & Cornwall,50.10424,-119.39254,0,144330
140238,Innovation Dr & Quail Ridge,49.95177,-119.38977,0,140238
144329,Pelmewash Pkwy & Cornwall,50.10291,-119.39256,0,144329
144333,26 St & 28 Ave (NB),50.262,-119.26531,0,144333
144336,Patterson & Okanagan,50.44698,-119.1941,0,144336
144324,Bella Vista & Orchard Hill,50.25643,-119.33731,0,144324
159000,Lakeshore & Alexander,50.70215,-119.28472,0,159000
159001,Shuswap St N & Hudson Ave,50.70091,-119.28519,0,159001
159005,Okanagan Ave & 2nd St,50.6998,-119.28214,0,159005
159006,Okanagan Ave & 6 St,50.69981,-119.27871,0,159006
159007,Okanagan Ave & 8 St NE,50.6998,-119.27513,0,159007
159008,10 St SE & 1 Ave SE,50.69934,-119.27365,0,159008
159009,10 St SE & 4 Ave SE,50.69742,-119.27368,0,159009
159010,4 Ave SE & 7 St SE,50.69709,-119.27597,0,159010
159011,4 Ave SE & 6 St SE,50.69712,-119.27885,0,159011
159012,4 Ave SE & 5 St SE,50.69723,-119.27974,0,159012
159013,2 Ave SE & 2 St SE,50.69809,-119.28212,0,159013
159014,2 Ave SE & 1 St SE,50.6981,-119.28353,0,159014
159015,Shuswap St SW & 5 Ave SE,50.69687,-119.28521,0,159015
159016,Shuswap St SW & 611 Blk,50.69554,-119.28522,0,159016
159017,Shuswap St & 10 Ave SW,50.69341,-119.28519,0,159017
159018,10 Ave SW & 10 St SW,50.69264,-119.29567,0,159018
159019,10 St SW at 5 Ave SW,50.69548,-119.29666,0,159019
159020,5 Ave SW & 10 St SW,50.69624,-119.29517,0,159020
159021,Centenoka Mall,50.69843,-119.29164,0,159021
159022,Hudson Ave NE & 6 St NE,50.7032,-119.27868,0,159022
159023,4 St NE & Lakeshore Dr NE,50.7032,-119.28044,0,159023
159089,Pierre's Point,50.73917,-119.31476,0,159089
159090,52 Ave NW & 3731 Blk,50.73809,-119.32847,0,159090
559000,Hudson & Shuswap,50.70065,-119.28477,0,559000
159064,Hudson Ave NW & 122 Blk,50.70059,-119.28699,0,159064
159065,4 St NE & Lakeshore Dr NE,50.70344,-119.2809,0,159065
159066,6 St NE & Hudson Ave NE,50.70363,-119.27821,0,159066
159067,Shuswap Hospital,50.70459,-119.27387,0,159067
159068,6 Ave NE & 11 St NE,50.70411,-119.27154,0,159068
159069,16 St NE & 10 Ave NE,50.70581,-119.26803,0,159069
159070,11 Ave NE & 21 St NE,50.70783,-119.26215,0,159070
159071,11 Ave NE & 22 St NE,50.70796,-119.25979,0,159071
159072,11 Ave NE & 2951 Blk,50.70805,-119.25208,0,159072
159073,30 St NE & 15 Ave NE,50.71091,-119.2504,0,159073
159074,30 St NE & 20 Ave NE,50.71521,-119.25036,0,159074
159075,30 St NE & 25 Ave NE,50.71833,-119.25036,0,159075
159076,30 St NE & 3231 Block,50.72334,-119.25031,0,159076
159077,30 St NE & 45 Ave NE,50.73227,-119.2504,0,159077
159078,30 St NE & 50 Ave NE,50.7369,-119.25033,0,159078
159079,30 St NE & 60 Ave NE,50.74293,-119.25025,0,159079
159080,Canoe Beach Dr & Park Hill Rd,50.75658,-119.23701,0,159080
159081,Canoe Beach Dr & 50 St NE,50.75398,-119.22816,0,159081
159082,Canoe Beach Dr & 51 St NE,50.75395,-119.22595,0,159082
159083,53 St NE & 73 Ave NE,50.75297,-119.22404,0,159083
159084,53 St NE & 70 Ave NE,50.75101,-119.22407,0,159084
159085,70 Ave NE & 50 St NE,50.75084,-119.22683,0,159085
159086,50 St NE & 68 Ave NE,50.74939,-119.22765,0,159086
159087,50 St NE & 6540 Blk,50.74724,-119.22765,0,159087
159055,11 Ave NE & 2951 Blk,50.70816,-119.25263,0,159055
159056,11 Ave NE & 22 St NE,50.70805,-119.25957,0,159056
159057,11 Ave NE & 18 St NE,50.708,-119.26437,0,159057
159058,16 St NE & 11 Ave NE,50.70753,-119.26723,0,159058
159059,16 St NE & 10 Ave NE,50.70584,-119.26824,0,159059
159060,16 St NE & 6 Ave NE,50.70438,-119.26986,0,159060
159061,6 Ave NE & 11 St NE,50.70423,-119.27146,0,159061
159062,Shuswap Hospital,50.70474,-119.27371,0,159062
159063,8 Ave NE & 6 St NE,50.70409,-119.27833,0,159063
159002,Centenoka Mall,50.69831,-119.28843,0,159002
159003,3 St SW & 5 Ave SW,50.69662,-119.28843,0,159003
159004,5 Ave SW & 10 St SW,50.69636,-119.29495,0,159004
159100,Piccadilly Mall,50.69467,-119.29963,0,159100
159088,West Shopping Centre: Walmart,50.69394,-119.31693,0,159088
159024,Okanagan Ave & 11 St SE,50.69981,-119.27184,0,159024
159025,Okanagan Ave & 16 St SE,50.69978,-119.26621,0,159025
159026,Okanagan Ave & 20 St SE,50.69979,-119.26248,0,159026
159027,Okanagan Ave & 25 St SE,50.69979,-119.25734,0,159027
159028,Okanagan Ave & 27 St SE,50.6998,-119.25338,0,159028
159029,30 St SE & Okanagan St SE,50.69859,-119.25045,0,159029
159030,30 St SE & 5 Ave SE,50.69557,-119.25062,0,159030
159031,30 St SE & 9 Ave SE,50.69367,-119.25061,0,159031
159032,30 St SE & 1361 Blk,50.69074,-119.25069,0,159032
159033,Auto Rd & 28 St SE,50.69303,-119.25182,0,159033
159034,Auto Rd & 25 St SE,50.69483,-119.25631,0,159034
159035,23 St SE & 8 Ave SE,50.69397,-119.25815,0,159035
159036,10 Ave SE & 22 St SE,50.69263,-119.25997,0,159036
159037,20 St SE & 12 Ave SE,50.69113,-119.2622,0,159037
159038,13 Ave SE & 12 Ave SE,50.69064,-119.2641,0,159038
159039,15 Ave SE & 17 St SE,50.68901,-119.26541,0,159039
159040,15 St SE & 13 Ave SE,50.68972,-119.26776,0,159040
159041,15 St SE & 12 Ave SE,50.69122,-119.26776,0,159041
159042,Auto Rd & 16 St SE,50.69327,-119.26702,0,159042
159043,20 St SE & Auto Rd,50.69502,-119.26202,0,159043
159044,3 Ave SE & 20 St SE,50.6977,-119.26154,0,159044
159045,23 St SE & 1 Ave SE,50.69898,-119.25818,0,159045
159046,25 St NE & Okanagan Ave,50.70019,-119.25591,0,159046
159047,27 St NE & 230 Blk,50.70157,-119.25351,0,159047
159048,5 Ave NE & 2540 Blk,50.70348,-119.25549,0,159048
159049,24 St NE & 5 Ave NE,50.70392,-119.25733,0,159049
159050,8 Ave NE & OUC Way NE,50.70598,-119.25614,0,159050
159051,Community Center Okanagan College,50.70568,-119.25569,0,159051
159099,Ok College Salmon Arm,50.70442,-119.25501,0,159099
159101,24 St NE & 10 Ave NE,50.70631,-119.25549,0,159101
159052,10 Ave NE & 2770 Blk,50.70688,-119.2537,0,159052
159053,28 St NE & 7 Ave NE,50.70527,-119.25285,0,159053
159054,30 St NE & 8 Ave NE,50.70541,-119.25042,0,159054
159094,Eagle Bay,50.93248,-119.21212,0,159094
159093,Balmoral Rd,50.87795,-119.36041,0,159093
159092,White Lake Rd,50.8278,-119.31933,0,159092
159091,Mellor Frontage Rd & Hudson Rd,50.65646,-119.19975,0,159091
144231,Hwy 97B & Deep Creek,50.62695,-119.19002,0,144231
144295,George & Stanley,50.55206,-119.14002,0,144295
559003,Hwy 97B & Deep Creek,50.62696,-119.18981,0,559003
559001,Hwy 97B & Sonora,50.64942,-119.19413,0,559001
159097,Sorrento Place,50.88447,-119.48817,0,159097
159098,Sorrento Mall,50.87705,-119.46711,0,159098
159096,Lion's Manor,50.87629,-119.46243,0,159096
159095,Blind Bay,50.88149,-119.37759,0,159095
959000,Shuswap Transit Centre,50.69732,-119.29343,0,959000
559002,Hwy 97B & Senora,50.64938,-119.19433,0,559002
144039,30 Ave & 35 St,50.26385,-119.27879,0,144039
144335,Pleasant Valley & Park,50.44555,-119.20026,0,144335
144337,Wood & Adair,50.44865,-119.20437,0,144337
159103,Balmoral Rd & Blind Bay Rd,50.87825,-119.36081,0,159103
159104,Whitelake Rd & Hwy 1,50.82788,-119.31951,0,159104
159105,Blind Bay & Marine,50.88153,-119.37749,0,159105
159106,Enderby: Mill & George,50.55117,-119.14064,0,159106
140248,Innovation & Spectrum,49.94792,-119.38923,0,140248
140249,Innovation & Spectrum,49.94826,-119.38906,0,140249
144342,Kalamalka & Mallard Way,50.23548,-119.26704,0,144342
140250,Innovation & Fleet,49.94973,-119.38984,0,140250
140251,Innovation & Fleet Court,49.95001,-119.38967,0,140251
159107,1st Nations Rd & 1st Ave SW,50.69883,-119.33086,0,159107
144347,33 St & 34 Ave,50.26703,-119.27503,0,144347
144346,30 St & 39 Ave,50.26953,-119.27105,0,144346
144348,Spallumcheen Way at Spallumcheen Pl,50.4022,-119.21713,0,144348
