stop_id,stop_name,stop_lat,stop_lon,wheelchair_boarding,stop_code
2349,Legislature Terminal,48.419742,-123.369014,0,100002
2350,Legislature Terminal,48.419147,-123.368957,0,100003
2351,Superior at Gov't - Legislature Terminal,48.418298,-123.369365,0,100004
114406,Superior at Gov't - Legislature Terminal,48.418272,-123.368067,0,100006
2353,Superior at Menzies,48.418267,-123.372816,0,100008
2354,Hwy 17 at Haliburton,48.513956,-123.38447,0,100009
2355,Douglas at Courtney - Conference Ctr,48.422745,-123.365751,0,100010
2356,Menzies at Superior,48.417847,-123.37265,0,100011
2357,Douglas at Blanshard -  Royal BC Museum,48.419228,-123.365886,0,100012
2358,Menzies at Michigan,48.417173,-123.372823,0,100013
2359,Gordon Head at San Juan,48.479341,-123.307627,0,100014
2361,Sooke at Townsend - Sooke Town Ctr.,48.378338,-123.722015,0,100016
2362,Burdett at Douglas,48.42205,-123.365463,0,100017
2363,Sooke Rd 5250 block,48.389034,-123.642852,0,100018
2364,Douglas at Courtney - Conference Ctr,48.422735,-123.365966,0,100019
2365,Superior at Oswego,48.419398,-123.376049,0,100021
2366,Menzies at Michigan,48.416611,-123.373348,0,100022
2367,Fairfield at Blanshard - Bay B,48.421242,-123.363528,0,100024
2368,Fairfield at Blanshard - Bay A,48.421886,-123.364085,0,100025
2370,Fort at Wharf,48.424992,-123.369242,0,100028
2371,Legislature Terminal,48.418974,-123.368956,0,100029
2372,Oswego at Michigan,48.418745,-123.377128,0,100030
2373,Menzies at Simcoe,48.415557,-123.37371,0,100031
2374,Douglas at Fort,48.424372,-123.36532,0,100032
2375,Fort at Douglas,48.424501,-123.364585,0,100033
2376,Douglas at Fort,48.424963,-123.365354,0,100034
2377,Fairfield at Quadra,48.420212,-123.360755,0,100035
2378,Menzies at Simcoe,48.414966,-123.374486,0,100036
2379,Douglas at Avalon,48.414875,-123.366307,0,100037
2380,Fairfield at Quadra,48.420187,-123.361008,0,100039
2383,Douglas at View,48.425546,-123.365181,0,100042
2385,Oswego at St James,48.417064,-123.378957,0,100044
2386,Fort at Blanshard,48.424173,-123.361833,0,100045
2387,Douglas at Avalon,48.41358,-123.367281,0,100046
2388,Wharf at Yates,48.427092,-123.3705,0,100047
2389,Yates at Broad / Douglas,48.426441,-123.36571,0,100048
2390,Niagara at Menzies,48.413688,-123.375228,0,100049
2391,Government at Johnson,48.427226,-123.367245,0,100050
2392,Douglas at Yates / Johnson,48.426708,-123.364671,0,100051
2393,Niagara at Menzies,48.413576,-123.375286,0,100052
2394,Johnson at Wharf,48.427745,-123.369699,0,100053
2395,Niagara at Clarence,48.412992,-123.373751,0,100054
2396,Johnson at Broad,48.427253,-123.365627,0,100055
2397,Fairfield at Vancouver,48.418365,-123.358659,0,100056
2398,Niagara at Clarence,48.412821,-123.373666,0,100058
2401,Gorge at Millgrove,48.446604,-123.395005,0,100061
2402,Vancouver at Collinson,48.418887,-123.35822,0,100062
2403,Johnson at Douglas,48.427055,-123.363976,0,100063
2404,Fort at Quadra,48.423887,-123.359217,0,100064
2405,Niagara at Government,48.412243,-123.372112,0,100065
116846,Otter Point Road at Butler,48.394837,-123.772792,0,100067
2406,Yates at Quadra,48.425853,-123.360444,0,100068
2407,Quadra at View,48.424425,-123.35951,0,100069
2409,University Dr at Ring Rd,48.459773,-123.314519,0,100071
2410,Niagara at Government,48.411934,-123.371807,0,100072
2411,Fairfield at Vancouver,48.418377,-123.358013,0,100073
2413,Richardson at Vancouver,48.419964,-123.357486,0,100075
2414,Douglas at Pandora - City Hall,48.427714,-123.364464,0,100076
2415,Pandora at Government / Store,48.428596,-123.368124,0,100077
2416,Douglas at Beacon - Beacon Hill Park,48.411257,-123.368587,0,100078
2417,Johnson at Blanshard,48.426729,-123.361265,0,100079
2418,Douglas at Beacon - Beacon Hill Park,48.411968,-123.368022,0,100080
2419,Douglas at Pandora - City Hall,48.428681,-123.364584,0,100082
2420,Pandora at Blanshard,48.427906,-123.362465,0,100084
2421,Quadra at Johnson,48.42615,-123.359077,0,100085
2422,Erie at Dallas - Fisherman's Wharf,48.421585,-123.383306,0,100086
2423,Oswego at Dallas,48.414509,-123.381677,0,100089
2424,Niagara at Douglas,48.410632,-123.36899,0,100090
2425,Fairfield at Cook,48.418159,-123.356234,0,100091
2426,Fairfield at Cook,48.418006,-123.355761,0,100092
2427,Johnson at Quadra,48.426465,-123.358619,0,100093
2428,Richardson at Cook,48.419742,-123.355459,0,100094
2429,Cook at Fairfield,48.418255,-123.355406,0,100095
2430,Cook at Richardson,48.419428,-123.355138,0,100096
2431,Esquimalt at Tyee,48.428822,-123.377965,0,100097
2432,Esquimalt at Tyee,48.428651,-123.378013,0,100099
2433,Cook at Fairfield,48.418356,-123.355192,0,100100
2434,Quadra at Pandora,48.427277,-123.359052,0,100101
2435,Cook at Southgate,48.416048,-123.355972,0,100102
2436,Cook at Richardson,48.419863,-123.354826,0,100105
2437,Yates at Vancouver,48.425508,-123.35716,0,100106
2438,East Sooke at Llanilar,48.366422,-123.684065,0,100108
2439,Richardson at Cook,48.419525,-123.354439,0,100109
2440,Dallas at Simcoe,48.421122,-123.385532,0,100110
2441,Dallas at Niagara,48.418635,-123.385404,0,100111
2442,Cook at Rockland,48.421887,-123.354519,0,100112
2443,Cook at Southgate,48.416135,-123.355719,0,100113
2444,Cook at Pandora,48.426968,-123.353409,0,100115
2445,Dallas at Montreal,48.416637,-123.385092,0,100116
2446,Cook at Oxford,48.414008,-123.356894,0,100117
2447,Quadra at Mason,48.427888,-123.358906,0,100118
2448,Cook at Sutlej,48.414375,-123.356486,0,100120
2449,Cook at Rockland,48.422313,-123.354201,0,100121
2450,Cook at Meares,48.423086,-123.354221,0,100122
2451,Fairfield at Su'it,48.417471,-123.353763,0,100123
2452,Fairfield at Su'it,48.417596,-123.353766,0,100124
2453,Johnson at Vancouver,48.426176,-123.355914,0,100125
2454,Fort at Cook,48.423277,-123.353475,0,100126
2455,Yates at Cook,48.425252,-123.354719,0,100127
2456,Cook at Fort,48.423611,-123.353918,0,100128
2457,Pandora at Quadra,48.427532,-123.358167,0,100129
2458,May at Cook,48.412254,-123.357093,0,100130
2459,May at Cook,48.412125,-123.356952,0,100131
2460,Douglas at Discovery,48.432163,-123.364702,0,100132
2461,Quadra at Balmoral,48.429235,-123.358728,0,100133
2462,Esquimalt at Sitkum,48.430127,-123.38048,0,100134
2463,Quadra at North Park,48.429616,-123.358904,0,100135
2464,Metchosin at Cotlow,48.414458,-123.483329,0,100136
2465,Fairfield at Linden,48.417108,-123.352486,0,100137
2466,Richardson at Linden,48.419358,-123.351853,0,100138
2467,Richardson at Linden,48.419174,-123.351184,0,100139
2468,Fairfield at Linden,48.416737,-123.35186,0,100141
2470,Cook at Johnson,48.426226,-123.353313,0,100144
2471,Quadra at Caledonia,48.430537,-123.358762,0,100145
2472,Douglas at Discovery,48.432177,-123.364488,0,100146
2473,Quadra at Caledonia,48.430589,-123.358542,0,100147
2474,Esquimalt at Catherine,48.430471,-123.385252,0,100148
2475,Tyee at Wilson,48.431033,-123.378723,0,100149
2476,Pandora at Cook,48.427255,-123.353846,0,100150
2477,Wilson 100 block,48.431478,-123.3793,0,100151
2478,Bay at Wilson,48.432622,-123.382781,0,100152
2479,Fort at Linden,48.422939,-123.350254,0,100153
2480,Metchosin at Kenning,48.413938,-123.483576,0,100154
2481,May at Linden,48.411883,-123.353729,0,100155
2482,May at Linden,48.411808,-123.353998,0,100156
2483,Swartz Bay Ferry Terminal,48.687991,-123.41227,0,100157
2484,Langford Pkwy at Lakepoint Way,48.445109,-123.533585,0,100158
2485,Johnson at Chambers,48.425591,-123.350238,0,100159
2486,Cook at Balmoral,48.428727,-123.353007,0,100160
2487,Esquimalt at Catherine,48.430321,-123.383108,0,100161
2488,Fairfield at Moss,48.415555,-123.349387,0,100162
2489,May at Wellington,48.411546,-123.351563,0,100163
2491,Yates at Ormond,48.424682,-123.348894,0,100165
2492,Quadra at Princess - Crystal Pool,48.43283,-123.358458,0,100166
2493,Richardson at Moss,48.418777,-123.347578,0,100167
2494,Linden at Faithful,48.40976,-123.353813,0,100168
2495,Pandora at Chambers,48.427141,-123.350068,0,100169
2496,Bay at Turner,48.434842,-123.375412,0,100170
2497,Quadra at Princess - Crystal Pool,48.4332,-123.358187,0,100171
2498,Cook at Caledonia,48.430231,-123.353009,0,100172
2499,Wilson at Bay,48.432806,-123.38275,0,100173
2500,Richardson at Moss,48.418867,-123.347129,0,100174
2501,Bay at Turner,48.43507,-123.374896,0,100175
2502,Wilson at Alston,48.432937,-123.382825,0,100176
2503,Douglas at Bay St.,48.435296,-123.365334,0,100177
2504,Douglas at Field (Bay St.),48.434688,-123.36477,0,100178
2505,Cook at Caledonia,48.430703,-123.352733,0,100179
2506,Bay at Rock Bay,48.435822,-123.369355,0,100180
2507,Johnson at Camosun,48.425464,-123.347877,0,100181
2508,Tyee at Bay,48.434358,-123.381374,0,100182
2509,Bay at Rock Bay,48.435924,-123.368484,0,100183
2510,May at Moss,48.411474,-123.350133,0,100184
2511,Bay at Douglas,48.435804,-123.365997,0,100185
2512,Tyee at Bay,48.434134,-123.381355,0,100186
2514,Wilson at Mary,48.43282,-123.385557,0,100188
2515,Wilson at Mary,48.43295,-123.3858,0,100189
2516,May at Moss,48.411307,-123.349425,0,100190
2517,Yates at Fernwood,48.424607,-123.346277,0,100191
2518,Dallas at Wellington,48.407174,-123.353682,0,100192
2519,Quadra at Bay,48.435029,-123.358161,0,100193
2520,Fernwood at Yates,48.424082,-123.34548,0,100194
2521,Douglas at Hillside / Gorge,48.43868,-123.36729,0,100195
2522,Cook at Princess,48.432408,-123.352726,0,100196
2523,Esquimalt at Maitland,48.430623,-123.389812,0,100197
2524,Douglas at Kings,48.437073,-123.366107,0,100198
2525,Richardson at Kipling,48.416621,-123.344415,0,100199
2526,May at Olive,48.411258,-123.348052,0,100200
2527,May at Joseph,48.411136,-123.347854,0,100201
2528,Richardson at Kipling,48.416751,-123.344371,0,100202
2529,Fernwood at Johnson,48.425766,-123.345364,0,100203
2530,Esquimalt at Maitland,48.430846,-123.390257,0,100204
2531,Fairfield at Kipling,48.414005,-123.345655,0,100205
2532,Cook at Princess,48.433023,-123.352454,0,100206
2533,Fernwood at Rudlin,48.425855,-123.345537,0,100207
2534,Quadra at Bay,48.435577,-123.357996,0,100208
2535,Pandora at Fernwood,48.426924,-123.345877,0,100209
2536,Fairfield at Kipling,48.413679,-123.345531,0,100210
2537,Johnson at Fernwood,48.425401,-123.344991,0,100211
2538,Fort at Elford,48.424939,-123.341307,0,100212
2539,George at Moss,48.408181,-123.350315,0,100213
2540,Fernwood at Pandora,48.42722,-123.345264,0,100214
2541,Skinner at Catherine,48.435517,-123.384424,0,100215
2544,Gorge at Government / Douglas,48.438549,-123.368111,0,100218
2545,Skinner at Catherine,48.43566,-123.385353,0,100219
2546,Hillside at Douglas,48.438596,-123.365801,0,100220
2547,Moss at Point,48.406353,-123.351137,0,100221
2548,May at Eberts,48.410912,-123.345851,0,100222
2549,Gorge at Government / Douglas,48.438748,-123.368215,0,100223
2550,Fort at Stanley,48.424605,-123.342765,0,100224
2551,Wilson at Dalton,48.432532,-123.391218,0,100225
2552,Cook at Empress,48.434603,-123.352446,0,100226
2553,Fernwood at Grant,48.42887,-123.345186,0,100227
2554,Johnson at Stanley,48.425851,-123.34319,0,100228
2555,Wilson at Dalton,48.43267,-123.391221,0,100229
2556,Bushby at Joseph,48.408362,-123.347882,0,100230
2557,Esquimalt at Barnard,48.431309,-123.393234,0,100231
2558,Eberts at Bushby,48.409114,-123.346686,0,100232
2559,Quadra at Kings,48.437672,-123.35881,0,100233
2560,Quadra at Kings,48.437908,-123.358627,0,100234
2561,Cook at Bay,48.435225,-123.35218,0,100235
2562,Fairfield at Memorial,48.412313,-123.343412,0,100236
2563,Hillside at Blanshard,48.438968,-123.362406,0,100237
2564,Memorial at May,48.411548,-123.343872,0,100238
2565,Fernwood at Gladstone,48.430269,-123.34526,0,100240
2566,Fairfield at Memorial,48.412146,-123.34342,0,100241
2567,Esquimalt at Dominion,48.431758,-123.394068,0,100242
2568,Memorial at Fairfield,48.411822,-123.343448,0,100243
2569,Richardson at Arnold,48.416427,-123.341412,0,100244
2570,Fernwood at Gladstone,48.430668,-123.34505,0,100245
2571,Gorge at Rock Bay,48.439725,-123.370768,0,100246
2572,Strandlund at Peatt,48.455662,-123.496286,0,100247
2573,Pandora at Johnson,48.4268,-123.34216,0,100248
2574,Richardson at Stannard,48.416189,-123.340433,0,100249
2575,Cook at Haultain,48.436154,-123.352291,0,100250
2576,Dunsmuir at Esquimalt,48.431666,-123.394774,0,100251
2577,Dunsmuir at Garrett,48.4303,-123.396188,0,100252
2578,Fernwood at Pembroke,48.431537,-123.345046,0,100253
2579,Gorge at Garbally,48.440323,-123.372735,0,100254
2580,Gorge at Garbally,48.440331,-123.372289,0,100256
2581,Quadra at Hillside,48.43911,-123.35921,0,100257
2582,Begbie at Elford,48.427599,-123.341239,0,100258
2583,Dunsmuir at Garrett,48.430197,-123.396778,0,100259
2584,Cook at Haultain,48.436719,-123.352018,0,100260
2585,Hillside at Quadra,48.439457,-123.359757,0,100261
2586,Pandora at Elford,48.426573,-123.340847,0,100262
2587,Old Esquimalt at Viewfield,48.432885,-123.394495,0,100263
2588,Fernwood at Centre,48.432213,-123.345186,0,100264
2589,Begbie at Elford,48.427551,-123.34091,0,100265
2590,Hillside at Quadra,48.439481,-123.358182,0,100266
2591,Head at Paradise,48.428054,-123.399068,0,100267
2592,Head at Paradise,48.427897,-123.399291,0,100268
2593,Fairfield at Arnold,48.412071,-123.341051,0,100269
2594,Gore at Lyall,48.426486,-123.400215,0,100270
2595,Quadra at Hillside,48.44006,-123.359255,0,100271
2596,Old Esquimalt at Viewfield,48.433023,-123.394966,0,100272
2597,Craigflower at Pine,48.436953,-123.38859,0,100273
2598,Gore at Lyall,48.426484,-123.400524,0,100274
2599,Dunsmuir at Head,48.429315,-123.398744,0,100275
2600,Esquimalt 830 block,48.431854,-123.397043,0,100276
2601,Dunsmuir at Head,48.429288,-123.399209,0,100277
2602,Hillside at Graham,48.4398,-123.356828,0,100278
2603,Fairfield at Stannard,48.412254,-123.339687,0,100279
2604,Hillside at Graham,48.439777,-123.356029,0,100280
2605,Craigflower at Belton,48.437425,-123.388834,0,100281
2607,Esquimalt 850 block,48.431532,-123.397942,0,100283
2608,Richardson at St Charles,48.416244,-123.338068,0,100284
2609,Fernwood at Bay,48.434259,-123.34511,0,100285
2610,Fort at Belmont,48.425916,-123.33829,0,100286
2612,Gorge at Jutland,48.441525,-123.375856,0,100288
2614,Burnside at Dunedin / Douglas,48.442044,-123.369566,0,100290
2615,Douglas at Burnside Rd E,48.442371,-123.369357,0,100291
2616,Burnside at Douglas,48.442185,-123.369559,0,100292
2617,Richardson at St Charles,48.41617,-123.337102,0,100293
2618,Fort at Pandora - Oak Bay Junction,48.42627,-123.337803,0,100294
2619,Douglas at Summit,48.442591,-123.369108,0,100295
2620,Pandora at Fort - Oak Bay Junction,48.426476,-123.337817,0,100296
2621,Gorge at Jutland,48.442383,-123.377626,0,100297
2622,Hillside at Blackwood,48.440127,-123.354338,0,100298
2623,Esquimalt at Head,48.43063,-123.400316,0,100299
2624,Jutland at Cecelia,48.442626,-123.375664,0,100300
2625,Hillside at Blackwood,48.440102,-123.353483,0,100301
2627,Fairfield at St Charles,48.412282,-123.337673,0,100303
2628,Quadra at Topaz,48.442072,-123.360042,0,100304
2629,Old Esquimalt at Aldebury,48.432908,-123.399245,0,100305
2631,Esquimalt at Head,48.43041,-123.401124,0,100307
2632,Old Esquimalt at Aldebury,48.433023,-123.39915,0,100308
2633,Cook at Hillside,48.440077,-123.351953,0,100309
2634,Craigflower at Alderman,48.438694,-123.390971,0,100310
2635,Hillside at Cook,48.440347,-123.352553,0,100311
2636,Oak Bay at McGregor,48.426478,-123.335991,0,100312
2637,Fairfield at St Charles,48.412169,-123.336848,0,100313
2638,Lyall at MacAulay,48.426706,-123.403968,0,100314
2639,Quadra at Topaz,48.442869,-123.360068,0,100315
2641,Oak Bay at Fort - Oak Bay Junction,48.426563,-123.336294,0,100317
2642,Craigflower at Coventry,48.439057,-123.391631,0,100318
2643,Jutland at Sumas,48.443664,-123.374875,0,100319
2644,Fort at Oak Bay - Oak Bay Junction,48.427034,-123.335786,0,100320
2645,Begbie at Vining,48.429092,-123.336614,0,100321
2646,Hillside at Cook,48.440415,-123.351205,0,100322
2647,Burnside at Jutland,48.443872,-123.373351,0,100323
2648,Lyall at MacAulay,48.426933,-123.404819,0,100324
2649,Gorge at Washington,48.443152,-123.38171,0,100325
2650,Gorge at Washington,48.443032,-123.382057,0,100326
2651,Esquimalt at MacAulay,48.429062,-123.40406,0,100327
2652,Finlayson at Burnside,48.444238,-123.373374,0,100328
2653,Cook at Hillside,48.440672,-123.351384,0,100329
2654,Begbie at Shakespeare,48.429449,-123.335998,0,100330
2656,Ross at St Charles,48.410949,-123.335965,0,100332
2657,Quadra at Summit,48.443652,-123.360495,0,100333
2658,Ross at St Charles,48.410803,-123.335868,0,100335
2659,Hillside at Higgins,48.440833,-123.349735,0,100336
2660,Hillside at Higgins,48.440841,-123.348779,0,100337
2661,Craigflower at Dominion,48.439551,-123.39348,0,100338
2662,Finlayson at Douglas - Mayfair Mall,48.444885,-123.37165,0,100339
2663,Fairfield at Lillian,48.413137,-123.334293,0,100340
2664,Old Esquimalt at Head,48.432944,-123.402438,0,100342
2665,Finlayson at Douglas - Mayfair Mall,48.445065,-123.369842,0,100343
2666,Quadra at Spruce,48.444255,-123.360461,0,100344
2667,Fairfield at Lillian,48.413071,-123.334116,0,100345
2668,Burnside at Frances,48.44501,-123.375406,0,100346
2669,Douglas at Finlayson - Mayfair Mall,48.444494,-123.370648,0,100347
2670,Esquimalt nearside Lampson,48.429447,-123.405565,0,100348
2671,Carey at Ravine - Uptown,48.455662,-123.377025,0,100349
2672,Fort at Morrison,48.428099,-123.334046,0,100351
2674,Lyall at Lampson,48.427103,-123.406982,0,100353
2675,Cook at Higgins,48.441967,-123.35009,0,100354
2676,Legislature Terminal,48.418823,-123.368966,0,100355
2677,Cook at Higgins,48.441948,-123.349858,0,100356
2678,Richardson at Richmond,48.417557,-123.331826,0,100357
2679,Douglas at Finlayson - Mayfair Mall,48.445498,-123.37083,0,100358
2680,Finlayson at Blanshard - Mayfair Mall,48.445528,-123.367705,0,100359
2681,Ross at Wildwood,48.410926,-123.334253,0,100360
2682,Oak Bay at Jubilee,48.4264,-123.331915,0,100361
2683,Burnside at Napier,48.445452,-123.376629,0,100362
2684,Gorge at Balfour,48.443424,-123.386503,0,100363
2685,Lampson at Wychbury,48.425763,-123.407956,0,100364
2686,Esquimalt at Lampson,48.429453,-123.406403,0,100365
2687,Lampson at Fernhill,48.431276,-123.405164,0,100366
2688,Lampson at Bewdley,48.423771,-123.408539,0,100367
2690,Gorge at Balfour,48.443599,-123.386828,0,100369
2691,Lampson at Wychbury,48.42512,-123.408334,0,100370
2692,Lampson at Munro,48.422015,-123.409083,0,100371
2693,Lampson at Old Esquimalt,48.433395,-123.403682,0,100372
2694,Lampson at Lyall,48.426773,-123.407851,0,100373
2695,Lampson at Bewdley,48.423135,-123.408936,0,100374
2696,Richardson at Richmond,48.417687,-123.330934,0,100375
2697,Lampson at Norma,48.431086,-123.405686,0,100376
2698,Ross at Wildwood,48.410801,-123.333616,0,100377
2699,Finlayson at Glasgow,48.446022,-123.362782,0,100378
2700,Lampson at Old Esquimalt,48.433878,-123.403708,0,100379
2701,Burnside at Alpha,48.446142,-123.37779,0,100380
2702,Lampson at Munro,48.421763,-123.409377,0,100381
2703,Oak Bay at Belcher,48.426546,-123.3328,0,100382
2704,Fairfield at Robertson,48.415109,-123.332041,0,100383
2705,Fort at Leighton,48.428554,-123.332397,0,100384
2706,Hillside at Cedar Hill,48.441036,-123.345454,0,100385
2707,Craigflower at Carrie,48.440107,-123.395402,0,100386
2709,Craigflower at Carrie,48.440269,-123.395438,0,100388
2710,Quadra at Finlayson,48.445958,-123.361179,0,100389
2711,Fairfield at Richmond,48.415287,-123.330948,0,100390
2713,Finlayson at Glasgow,48.446216,-123.362174,0,100392
2714,Richardson at Gonzales,48.418354,-123.330082,0,100393
2715,Douglas at Herald / Fisgard,48.429958,-123.364397,0,100394
2716,Gorge at Harriet,48.443771,-123.38972,0,100395
2717,Hillside at Cedar Hill,48.441255,-123.344702,0,100396
2718,Oak Bay at Richmond,48.426392,-123.329884,0,100397
2719,Gorge at Harriet,48.443885,-123.389652,0,100398
2720,Burnside at Alpha,48.446673,-123.379185,0,100399
2722,Quadra at Finlayson,48.446829,-123.361186,0,100401
2723,Fort at Ashgrove,48.429114,-123.331387,0,100402
2724,Shelbourne at Denman,48.432747,-123.333502,0,100403
2725,Munro at Kinver,48.421727,-123.410967,0,100404
2726,UVic Exchange,48.466248,-123.308867,0,100405
2727,Oak Bay at Richmond,48.426534,-123.330657,0,100406
2728,Richmond at Leighton,48.428139,-123.330332,0,100407
2729,Lampson at Wurtele,48.436648,-123.402885,0,100408
2731,Crescent at Richmond,48.411744,-123.330644,0,100410
2732,Shelbourne at Denman,48.432813,-123.333287,0,100411
2733,Crescent at Richmond,48.411669,-123.33051,0,100412
2734,Kiwanis Way at Cedar Hill,48.443644,-123.34802,0,100413
2735,Burnside at Washington,48.447239,-123.380034,0,100414
2736,Munro at Kinver,48.421964,-123.411816,0,100415
2737,Craigflower at Arcadia,48.440765,-123.399185,0,100416
2738,Craigflower at Arcadia,48.440752,-123.398587,0,100417
2739,Lampson at Ellery,48.437581,-123.402247,0,100418
2740,Lampson at Colville,48.438546,-123.40212,0,100419
2741,Cedar Hill at Hipwood,48.443889,-123.347531,0,100420
2742,Esquimalt at Fernhill,48.429926,-123.41019,0,100421
2743,Finlayson at Somerset,48.446927,-123.356481,0,100422
2744,Finlayson at Blackwood,48.446927,-123.355565,0,100424
2745,Richardson at Lawndale,48.419518,-123.327641,0,100425
2746,Cook at Summit,48.445068,-123.349239,0,100426
2747,Fort at Richmond,48.429697,-123.329685,0,100427
53565,William Head at Pearson College,48.351303,-123.546299,0,100429
2749,Esquimalt at Fernhill,48.430096,-123.410165,0,100430
2751,Foul Bay at Fairfield,48.415764,-123.327682,0,100432
2752,Shelbourne at Haultain,48.435484,-123.333809,0,100433
2753,Richmond at Fort,48.430114,-123.329892,0,100434
53571,William Head at Pearson College,48.351327,-123.546248,0,100435
2754,Foul Bay at Fairfield,48.41586,-123.327487,0,100436
2756,Fort at Richmond,48.429903,-123.329575,0,100438
2757,Foul Bay at Quixote,48.414246,-123.327718,0,100439
2758,Cedar Hill at Hibberson,48.444768,-123.346924,0,100440
2759,Richmond at Coronation,48.431365,-123.329793,0,100441
2760,Hillside at Gosworth,48.442269,-123.341669,0,100442
2761,Cook at Summit,48.445612,-123.349174,0,100443
2762,Munro at Plaskett,48.422528,-123.413786,0,100444
2763,Quadra at Tolmie,48.448754,-123.361953,0,100445
2764,Burnside at Eldon,48.44814,-123.382196,0,100446
2765,Munro at Plaskett,48.422345,-123.413839,0,100447
2766,Hillside at Gosworth,48.442396,-123.341765,0,100448
2767,Cedar Hill at Hibberson,48.444974,-123.346528,0,100449
2768,Shelbourne at Haultain,48.436487,-123.333565,0,100450
2769,Richmond at Denman,48.431975,-123.329411,0,100451
2770,Burnside at Balfour,48.448491,-123.382553,0,100452
2771,Oak Bay at Chamberlain,48.426394,-123.326742,0,100453
2772,Douglas at Cloverdale,48.449645,-123.37376,0,100454
2773,Quadra at Tolmie,48.449319,-123.361707,0,100455
2774,Douglas at Cloverdale,48.449862,-123.373526,0,100456
2775,Craigflower at Lampson,48.441569,-123.401288,0,100457
2776,Oak Bay at Davie,48.426528,-123.326546,0,100458
2777,Gorge at Wascana,48.445253,-123.392991,0,100459
2778,Crescent at Foul Bay,48.412093,-123.327095,0,100460
2779,Shelbourne at Kings,48.437566,-123.333739,0,100461
2780,Gorge at Wascana,48.44577,-123.39347,0,100462
2781,Craigflower at Tillicum/Lampson,48.44141,-123.401319,0,100463
2782,Colville at MacLeod,48.438698,-123.405402,0,100464
53601,William Head at Sandgate,48.353257,-123.547301,0,100465
2783,Colville at MacLeod,48.438808,-123.405438,0,100466
2784,Fraser at Wychbury,48.426536,-123.414422,0,100467
2785,Richmond at Bay - Royal Jubilee Hospital,48.433397,-123.329354,0,100468
2786,Fraser at Lyall,48.427682,-123.413937,0,100469
2787,Esquimalt at Fraser,48.43027,-123.413288,0,100470
2788,Esquimalt at Park,48.430077,-123.413961,0,100471
2789,Munro at Fraser,48.424046,-123.415547,0,100472
2790,Lyall at Fraser,48.428177,-123.414107,0,100473
2791,Cook at Tovido,48.447476,-123.34982,0,100474
2792,Foul Bay at Romney,48.418801,-123.324583,0,100475
2793,Tillicum at Craigflower,48.442254,-123.401955,0,100476
2794,Foul Bay at Runnymede,48.418998,-123.324101,0,100477
2795,Fraser at Wychbury,48.426154,-123.414829,0,100478
2796,Richmond at Bay - Royal Jubilee Hospital,48.434065,-123.329013,0,100479
2797,Fraser at Bewdley,48.424685,-123.415503,0,100481
2798,Crescent at Foul Bay,48.412153,-123.328068,0,100482
2799,Tillicum at Craigflower,48.441314,-123.402451,0,100483
2800,Shelbourne at Kings,48.438524,-123.333474,0,100485
2801,Burnside at Harriet,48.449198,-123.384275,0,100486
2802,Finlayson at Cook,48.447808,-123.348601,0,100487
2803,Cook at Finlayson,48.448103,-123.349812,0,100488
2804,Foul Bay at Richardson/McNeill,48.42053,-123.323473,0,100489
2805,Finlayson at Cook,48.447887,-123.349002,0,100490
2806,Craigflower at Tillicum,48.442282,-123.40317,0,100491
2807,Craigflower 1030 block,48.442506,-123.404043,0,100492
2808,Foul Bay at McNeill/Richardson,48.4206,-123.323329,0,100493
2809,Harriet at Burnside,48.449925,-123.38402,0,100495
2810,Sooke Rd 5220 block,48.390956,-123.64113,0,100496
2811,Cedar Hill at Gosworth,48.446587,-123.344986,0,100497
2812,Fort at Lee,48.43146,-123.326165,0,100498
2813,Cedar Hill at Gosworth,48.446588,-123.345202,0,100499
2814,McNeill at Foul Bay,48.420237,-123.322808,0,100500
2815,Tillicum at Gosper,48.443775,-123.401465,0,100501
2816,Oak Bay at Amphion,48.426383,-123.324021,0,100502
2818,McNeill at Foul Bay,48.42037,-123.322944,0,100504
2819,Hillside at Doncaster,48.44357,-123.338822,0,100505
2820,Richmond at Adanac,48.435535,-123.328906,0,100506
2821,UVic Exchange,48.4664,-123.308661,0,100507
2822,Metchosin at Wootton,48.381022,-123.530202,0,100508
2823,Tillicum at Gosper,48.443683,-123.401707,0,100509
33186,Bowker at Monteith,48.432417,-123.308415,0,100510
2824,Foul Bay at Edgecliffe,48.42226,-123.322516,0,100511
2825,Oak Bay at Amphion,48.426516,-123.323311,0,100512
2826,Cook at Slater,48.449049,-123.350347,0,100513
2827,Hillside at Doncaster,48.443841,-123.337704,0,100514
2828,Fort at Lee,48.431565,-123.325101,0,100515
2829,Foul Bay at Oak Bay,48.426204,-123.322835,0,100517
2830,Richmond at Haultain,48.436233,-123.32856,0,100518
2831,Lyall at Admirals,48.428343,-123.4167,0,100519
2832,Quadra at Inverness,48.45154,-123.361085,0,100520
2833,Crescent at King George,48.410652,-123.323918,0,100521
2834,Foul Bay at Granite,48.425393,-123.322313,0,100522
2835,Burnside at Qu'Appelle,48.450366,-123.386279,0,100523
2836,Colville at Hutchinson,48.438191,-123.410914,0,100524
2837,Gorge at Orillia,48.447334,-123.397172,0,100525
2838,Esquimalt at Admirals,48.429837,-123.4166,0,100526
2839,Burnside at Wascana,48.450485,-123.386863,0,100527
2840,Admirals at Lyall,48.428432,-123.417128,0,100528
2841,Admirals at Esquimalt,48.429471,-123.416904,0,100529
2842,Richmond at Kings,48.437549,-123.328484,0,100530
2843,Shelbourne at Pearl,48.441712,-123.333532,0,100531
2844,Tillicum at Gorge Bridge,48.44579,-123.400491,0,100532
2845,Foul Bay at Leighton,48.428576,-123.322746,0,100533
2846,Boleskine at Whittier,48.452096,-123.380564,0,100534
2847,Boleskine at Douglas,48.452599,-123.376227,0,100535
2848,Oak Bay at Foul Bay,48.426399,-123.321773,0,100536
2849,Colville at Hutchinson,48.438358,-123.410832,0,100537
2850,Harriet at Irma,48.451937,-123.382066,0,100538
2851,Tillicum at Gorge Bridge,48.445459,-123.400937,0,100539
2852,Quadra at Holmes,48.452321,-123.360601,0,100540
2853,Finlayson at Cedar Hill,48.448301,-123.344821,0,100541
2854,Boleskine at Douglas,48.452736,-123.376403,0,100542
2855,Admirals at Esquimalt,48.430263,-123.417047,0,100543
2856,Richmond at Kings,48.43773,-123.328245,0,100544
2857,Esquimalt at Admirals,48.429936,-123.417545,0,100545
2858,Foul Bay at Milton,48.429218,-123.322524,0,100546
2859,Quimper Loop,48.408916,-123.323402,0,100547
2860,Finlayson at Cedar Hill,48.448439,-123.344507,0,100548
2861,Shelbourne at Pearl,48.442239,-123.333342,0,100549
2862,Foul Bay at Meadow,48.429952,-123.322632,0,100550
2863,Douglas at Boleskine - Uptown,48.453216,-123.375901,0,100551
2864,McNeill at Falkland,48.420328,-123.320491,0,100552
2865,Maplewood at Tolmie,48.450564,-123.350499,0,100553
2866,Douglas at Saanich - Uptown,48.453278,-123.375531,0,100554
2867,Foul Bay at Goldsmith,48.430781,-123.322388,0,100556
2868,Cedar Hill at North Dairy,48.44889,-123.343739,0,100557
2869,McNeill at Falkland,48.420173,-123.319446,0,100558
2870,Foul Bay at Cadboro Bay / Fort,48.431763,-123.32255,0,100559
2871,Fort at Foul Bay,48.432153,-123.322926,0,100561
2872,Gorge at Tillicum,48.447662,-123.399213,0,100562
2873,Cedar Hill at North Dairy,48.448683,-123.343644,0,100563
2874,Saanich at Oak - Uptown,48.453502,-123.374625,0,100564
2875,Richmond at Newton,48.43913,-123.327973,0,100565
2876,Hillside at Shakespeare - Hillside Ctr.,48.444817,-123.335207,0,100566
2877,Colville at Intervale,48.437952,-123.413498,0,100567
2878,Richmond at Carnarvon,48.439239,-123.328142,0,100568
2879,Gorge at Tillicum,48.447803,-123.399439,0,100569
2880,Admirals at Naden,48.433453,-123.417349,0,100570
2881,Saanich at Oak - Uptown,48.453937,-123.374589,0,100571
2882,Burnside at Millgrove,48.451767,-123.389353,0,100572
2883,Cadboro Bay at Bee - Oak Bay Rec Ctr,48.432246,-123.321656,0,100573
2884,Oak Bay at Elgin,48.426588,-123.319619,0,100574
2885,Foul Bay at Cadboro Bay / Fort,48.432804,-123.322303,0,100575
2886,Tillicum at Gorge,48.448289,-123.399766,0,100576
2887,Shelbourne at Myrtle,48.443984,-123.33328,0,100577
2888,Maplewood at Ocean View,48.451875,-123.350902,0,100578
2889,Colville at Veterans,48.437946,-123.414704,0,100579
2890,Admirals at Naden,48.4338,-123.417852,0,100580
2891,Tillicum at Gorge,48.448042,-123.400308,0,100581
2892,Victoria at Windsor,48.421785,-123.318414,0,100582
2893,Victoria at McNeill,48.42061,-123.31835,0,100583
2894,North Dairy at Wetherby,48.448315,-123.34009,0,100584
2895,Craigflower 1110 block,48.444147,-123.40742,0,100585
2896,Craigflower 1115 block,48.444184,-123.407221,0,100586
2897,Burnside at Millgrove,48.451728,-123.388922,0,100587
2898,Oak Bay at Yale,48.42645,-123.318562,0,100588
2899,Victoria at Pentland,48.419569,-123.317732,0,100589
2900,Shelbourne at Hillside,48.445099,-123.333437,0,100590
2901,Victoria at Central,48.417087,-123.317866,0,100591
2902,Saanich at Blanshard - Uptown,48.454966,-123.372946,0,100593
2903,Esquimalt at Sturdee,48.429669,-123.420828,0,100594
2904,Hillside at Shelbourne - Hillside Ctr.,48.445334,-123.334476,0,100595
2905,Richmond at Allenby,48.441059,-123.327741,0,100596
2906,Esquimalt at Foster,48.429668,-123.422038,0,100597
2907,Tillicum at Obed,48.449732,-123.39839,0,100598
2908,Quadra at Cook / Cloverdale,48.454338,-123.359879,0,100599
2909,Saanich at Blanshard  / Vernon,48.455323,-123.371551,0,100600
2910,Tillicum at Obed,48.450283,-123.39748,0,100601
2911,Foul Bay at Haultain,48.435462,-123.322366,0,100602
2912,Maplewood at Oakmount,48.452978,-123.350458,0,100603
2913,Obed at Tillicum,48.450261,-123.39832,0,100604
2914,Foul Bay at Haultain,48.435649,-123.322168,0,100605
2915,Richmond at Allenby,48.441525,-123.327466,0,100606
2916,Obed at Tillicum,48.450053,-123.398233,0,100608
2918,North Dairy at Keats,48.448274,-123.337278,0,100610
2919,North Dairy at Keats,48.448144,-123.336796,0,100611
2920,Hillside Centre,48.447371,-123.335485,0,100612
2921,Colville at Flag,48.437593,-123.416847,0,100613
2922,Quadra at Cook,48.455196,-123.359771,0,100614
2923,Shelbourne at Hillside - Hillside Ctr.,48.44619,-123.333155,0,100615
2924,Cadboro Bay at Cranmore,48.432771,-123.318374,0,100616
2925,Gorge at Gorge View,48.448518,-123.403227,0,100617
2926,Hillside at Shelbourne,48.445836,-123.332646,0,100618
2927,Tillicum at Arena / Maddock,48.451548,-123.396354,0,100619
2928,Burnside at Orillia,48.453165,-123.391638,0,100620
2929,Admirals at Lockley,48.43704,-123.418045,0,100621
2930,Oak Bay at Wilmot,48.426453,-123.317032,0,100622
2931,Burnside at Albina,48.45315,-123.392016,0,100623
2932,Admirals at Colville,48.436948,-123.418263,0,100624
2933,Foul Bay at Kings,48.437383,-123.322291,0,100625
2934,Foul Bay at Kings,48.437565,-123.322077,0,100626
2935,Cedar Hill at McRae,48.450967,-123.340898,0,100627
2936,Tillicum at Maddock / Arena,48.452226,-123.395274,0,100628
2937,Windsor at Hampshire,48.421983,-123.315626,0,100629
2938,Maplewood at Camrose,48.454088,-123.350691,0,100630
2939,Cedar Hill at Doncaster,48.450637,-123.341586,0,100631
2940,Oak Bay at Hampshire,48.426567,-123.315729,0,100632
2941,Central at Monterey,48.416657,-123.315262,0,100633
2942,Craigflower at Forshaw,48.445426,-123.409749,0,100634
2943,Esquimalt at Grafton,48.429364,-123.42345,0,100635
2944,Shelbourne at N. Dairy - Hillside Ctr.,48.446769,-123.333453,0,100636
2945,North Dairy at Browning,48.448248,-123.334705,0,100637
2946,Colville at Admirals,48.437551,-123.418696,0,100638
2947,Cadboro Bay at Epworth,48.43255,-123.320119,0,100639
2949,Lansdowne at Aldridge,48.446251,-123.330526,0,100641
2950,Vernon at Saanich,48.456387,-123.371061,0,100642
2951,Saanich at Darwin,48.457036,-123.369654,0,100643
2952,Craigflower at Forshaw,48.445593,-123.410448,0,100644
2953,Saanich at Darwin,48.45717,-123.369273,0,100645
2954,Richmond at Forrester,48.444061,-123.327092,0,100646
2955,Quadra at Tattersall Dr,48.45786,-123.360034,0,100647
2956,Tillicum at Burnside - Tillicum Ctr,48.453329,-123.394347,0,100648
2957,Obed at Bodega,48.451295,-123.400621,0,100649
2958,Blanshard at Ravine - Uptown,48.457012,-123.376022,0,100650
2959,Canteen at Esquimalt,48.428904,-123.424622,0,100651
2960,Richmond at Cochrane,48.444251,-123.326856,0,100652
2961,Lansdowne at Richmond,48.446074,-123.32785,0,100653
2962,Windsor at Monterey,48.421968,-123.313899,0,100654
2963,Quadra at Tattersall Dr,48.45827,-123.359877,0,100655
2964,Shelbourne at North Dairy,48.448429,-123.333115,0,100656
2965,Oak Bay at Monterey,48.426413,-123.314595,0,100657
2967,Foul Bay at Townley,48.440056,-123.322168,0,100659
2968,Maplewood at Derby,48.455647,-123.350825,0,100661
2969,Burnside at Tillicum - Tillicum Ctr,48.454615,-123.39358,0,100662
2971,Cadboro Bay at Eastdowne,48.433573,-123.317098,0,100664
2972,Foul Bay at Townley,48.440525,-123.321932,0,100665
2974,Obed at Bodega,48.451955,-123.401623,0,100668
2975,Monterey at Woodlawn,48.428505,-123.313928,0,100669
2976,Burnside at Tillicum - Tillicum Ctr,48.455164,-123.393527,0,100670
2977,Tillicum Ctr / G.R. Pearkes Rec Ctr,48.454294,-123.396397,0,100671
2978,Cadboro Bay at Eastdowne,48.433461,-123.315914,0,100673
2979,Monterey at Woodlawn,48.428489,-123.314129,0,100674
2981,Cedar Hill at Oakcrest,48.452975,-123.34013,0,100676
2982,Cedar Hill at Oakcrest,48.453151,-123.340253,0,100677
2983,Richmond at Watson,48.445543,-123.326768,0,100678
2984,Vernon at Ravine - Saanich Mun. Hall,48.458947,-123.376494,0,100679
2985,Lansdowne at Richmond,48.446213,-123.327576,0,100680
2986,Foul Bay at Neil,48.44171,-123.322084,0,100681
2987,Maplewood at Astoria,48.456603,-123.350986,0,100682
2988,Craigflower at Garthland,48.446599,-123.412205,0,100683
2989,Carey at Harriet,48.458336,-123.379261,0,100684
2990,Shelbourne at McRae,48.450079,-123.333264,0,100685
2991,Oak Bay at Oliver,48.426365,-123.312319,0,100686
2992,Craigflower at Garthland,48.446532,-123.412376,0,100687
2993,Maplewood at Pike,48.457066,-123.350858,0,100688
2994,Foul Bay at Neil,48.442222,-123.321826,0,100689
2995,Windsor at St Patrick,48.421947,-123.311388,0,100690
2996,Admirals at Coles,48.438094,-123.42228,0,100691
2997,Admirals at Coles,48.438219,-123.422241,0,100692
2998,Esquimalt at Lyall,48.428419,-123.428112,0,100693
2999,Central at St Patrick,48.416662,-123.311572,0,100694
3000,Gorge at Dysart,48.450165,-123.409123,0,100695
3002,Shelbourne at McRae,48.450884,-123.333058,0,100697
3003,HMC Dockyard Terminal,48.427641,-123.428154,0,100698
3004,Gorge at Heath,48.450178,-123.408739,0,100699
3005,Obed 500 block,48.452835,-123.403696,0,100700
3006,Oak Bay at York,48.426475,-123.311408,0,100701
3007,Foul Bay at Forrester,48.443338,-123.321974,0,100702
3008,Parklands at Cunningham,48.441535,-123.420354,0,100703
3009,Obed 500 block,48.452837,-123.403373,0,100704
3011,Kingsmill at Alexander,48.44266,-123.419714,0,100706
3012,Cedar Hill at Derby,48.454687,-123.339835,0,100707
3013,St Ann at Cranmore,48.431054,-123.312192,0,100708
3014,Trans-Canada Hwy at Tillicum,48.458419,-123.392016,0,100709
3015,Trans-Canada Hwy at Tillicum,48.457896,-123.389904,0,100710
3016,Cedar Hill at Derby,48.455043,-123.339532,0,100711
3017,Richmond at Argyle - Camosun College,48.447413,-123.32614,0,100712
3018,Quadra at Rock,48.459958,-123.360555,0,100713
3019,Newport at St David,48.42595,-123.309965,0,100714
3020,Windsor at Transit,48.421933,-123.309428,0,100715
3021,Burnside Rd at Hwy 1 ramp,48.456898,-123.394602,0,100716
3022,Foul Bay at Cochrane,48.444582,-123.321762,0,100717
3023,Cadboro Bay at Dalhousie,48.434535,-123.313169,0,100718
3024,Richmond at Argyle - Camosun College,48.44722,-123.326395,0,100719
3025,St Ann at Cranmore,48.431523,-123.311683,0,100720
3026,Central at Transit,48.416636,-123.309236,0,100721
3027,Saanich at Pendene,48.46072,-123.369099,0,100722
3028,Kingsmill at Parklands,48.441739,-123.422105,0,100723
3029,Saanich at Pendene,48.461067,-123.369019,0,100724
3030,Foul Bay at Lansdowne,48.445461,-123.321893,0,100725
3031,Carey at Huxley,48.459635,-123.38121,0,100726
3032,Shelbourne at Knight,48.45293,-123.333207,0,100727
3033,Parklands at McAdam,48.440548,-123.423556,0,100728
3034,Carey at Huxley,48.460259,-123.381755,0,100729
3035,Shelbourne at Knight,48.453092,-123.333017,0,100731
3036,Blenkinsop at Tattersall,48.459094,-123.351014,0,100732
3037,Admirals at Parklands,48.439332,-123.4247,0,100733
3038,Newport at Beresford,48.425428,-123.308872,0,100734
3039,Obed at Dysart,48.45399,-123.405606,0,100735
3040,Blenkinsop at Tattersall,48.459222,-123.350821,0,100736
3041,Cadboro Bay at Woodhouse,48.435876,-123.312894,0,100737
3043,Cadboro Bay at Woodhouse,48.43662,-123.313045,0,100739
3045,UVic Exchange,48.46602,-123.30836,0,100741
3046,Newport at Transit,48.424619,-123.308048,0,100742
3047,Burnside at Interurban,48.458213,-123.394954,0,100743
3048,Cowper at Dysart,48.453581,-123.406707,0,100744
3049,St Ann at Bowker,48.432986,-123.31073,0,100745
3050,Quadra at Rock,48.460466,-123.360477,0,100746
3051,Cadboro Bay at Kinross,48.437269,-123.3128,0,100747
3052,Bowker at Lulie,48.433076,-123.310133,0,100748
3053,Carey at Seaton,48.461223,-123.383266,0,100749
3054,Richmond at Ernest,48.450008,-123.325636,0,100750
3055,Richmond at Ernest,48.449802,-123.325367,0,100751
3056,Camosun College main entrance,48.447463,-123.321384,0,100752
3057,Cedar Hill at Rowan,48.457175,-123.339205,0,100753
3058,Craigflower at Aral,48.449642,-123.420432,0,100754
3059,Craigflower at Dellwood,48.447821,-123.41568,0,100755
3060,Cadboro Bay at Estevan,48.438515,-123.312654,0,100756
3061,Newport at Windsor,48.423843,-123.306701,0,100757
3062,Cadboro Bay at Pacific,48.438811,-123.312822,0,100758
3063,Saanich at Lodge,48.462763,-123.368103,0,100759
3064,Saanich at Lodge,48.463894,-123.367622,0,100760
3065,Shelbourne at Derby,48.454754,-123.332973,0,100761
3066,Admirals at Luscombe,48.440425,-123.426186,0,100762
3067,Camosun College main entrance,48.448,-123.320356,0,100763
3068,Central at Byng,48.416552,-123.306332,0,100764
3069,Newport at Windsor - Windsor Park,48.4233,-123.306243,0,100765
3070,Carey at Seaton,48.46171,-123.38362,0,100766
3071,Westhills Exchange,48.445667,-123.531893,0,100767
3072,Cedar Hill at Rowan,48.457606,-123.338888,0,100768
3073,Windsor at Newport,48.423755,-123.306063,0,100769
3075,Quadra at Lodge,48.462476,-123.359992,0,100771
3076,Cowper at Austin,48.454565,-123.408856,0,100772
3077,Cadboro Bay at Harlow,48.440048,-123.312691,0,100773
3078,Cowper at Austin,48.454412,-123.408885,0,100774
3079,Richmond at Woodley,48.452104,-123.326397,0,100775
3080,Admirals at Caroline,48.440334,-123.425733,0,100776
3081,Cadboro Bay at Harlow,48.440014,-123.312492,0,100777
3082,Richmond at Woodley,48.452263,-123.326249,0,100778
3083,Gorge at Colquitz,48.451462,-123.415215,0,100779
3084,Carey at Diamond,48.462394,-123.384792,0,100780
3085,Shelbourne at Cedar,48.455848,-123.333145,0,100781
3086,Quadra at Lodge,48.463094,-123.359508,0,100782
3087,Beach at Bowker,48.432173,-123.306858,0,100783
3088,Richmond at Knight,48.453152,-123.326772,0,100784
3089,Carey at Tillicum,48.46281,-123.385027,0,100785
3090,Central at Newport,48.416494,-123.304258,0,100786
3091,Beach at Bowker,48.432391,-123.306497,0,100787
3092,Newport at Orchard,48.421627,-123.30401,0,100788
3093,Blenkinsop at Judge,48.462155,-123.350254,0,100789
3094,Blenkinsop at Judge,48.462272,-123.350078,0,100790
3095,Newport 840 block,48.418297,-123.303814,0,100791
3096,Cadboro Bay at Neil,48.442161,-123.312228,0,100792
3097,Richmond at Mayfair,48.453905,-123.327,0,100793
3098,Nottingham at Thompson,48.44133,-123.311897,0,100794
3099,Craigflower at Aral,48.449162,-123.420066,0,100795
3100,Newport at Margate,48.420419,-123.303297,0,100796
3101,Interurban at Dumeresq,48.462358,-123.395358,0,100797
3102,Shelbourne at Rowan,48.457216,-123.332933,0,100798
3103,Craigflower at Rankin,48.448385,-123.417401,0,100799
3104,Oak Bay Marina,48.423681,-123.302932,0,100800
3105,Beach at Dalhousie,48.433585,-123.305868,0,100801
3106,Musgrave at Thompson,48.438125,-123.308107,0,100802
3107,Cowper at Colquitz,48.455638,-123.411306,0,100803
3109,Burnside at Admirals,48.460352,-123.399648,0,100805
3110,Carey at Tillicum,48.463677,-123.386433,0,100806
3111,Thompson at Musgrave,48.438137,-123.308475,0,100807
3112,Mayhew at Dufferin,48.439841,-123.309355,0,100808
3113,Cowper at Colquitz,48.45561,-123.411929,0,100809
3114,Burnside at Rolston,48.460628,-123.400281,0,100810
3115,Shelbourne at Pear,48.458236,-123.333122,0,100811
3117,Cedar Hill at Church,48.460221,-123.338313,0,100813
3118,Beach at Dalhousie,48.434383,-123.304998,0,100814
3119,Estevan at Dunlevy,48.437181,-123.3069,0,100815
3120,Cedar Hill at Church,48.460169,-123.338132,0,100816
3121,Trans-Canada Hwy at McKenzie / Admirals,48.459855,-123.403507,0,100817
3122,Westhills Exchange,48.445761,-123.532139,0,100818
3123,Admirals at Seenupin,48.4444,-123.42789,0,100819
3124,Richmond at Cedar,48.45607,-123.328303,0,100820
3125,Estevan at Dunlevy,48.437336,-123.306965,0,100821
3126,Richmond at Cedar,48.456281,-123.328204,0,100822
3127,Admirals at Thomas,48.444382,-123.428145,0,100823
3128,Nottingham at Burdick,48.442114,-123.310314,0,100824
3130,Foul Bay at University Woods,48.449707,-123.317973,0,100826
3131,Foul Bay at University Woods,48.449544,-123.318019,0,100827
3132,Quadra at Hulford,48.465693,-123.361199,0,100828
3133,Shelbourne at Pear,48.45882,-123.332887,0,100829
3135,Saanich at Greenridge,48.466108,-123.368683,0,100831
3136,Admirals at Hallowell,48.447083,-123.426529,0,100832
3138,Glanford at McKenzie,48.466271,-123.387913,0,100834
3139,Blenkinsop at Union,48.464592,-123.350262,0,100835
3140,Saanich at Greenridge,48.466508,-123.368885,0,100836
3141,Admirals at Cowper,48.456224,-123.413619,0,100837
3142,Estevan at Lincoln,48.436371,-123.304494,0,100838
3143,Carey at Glanford,48.464928,-123.388131,0,100839
3145,Burnside at McKenzie,48.461833,-123.401811,0,100841
3146,Veteran's Memorial Pkwy at Langford Pkwy,48.440989,-123.50256,0,100842
3147,Burnside at McKenzie,48.461636,-123.401755,0,100843
3148,Richmond at Kingsberry,48.458123,-123.329158,0,100844
3150,Gorge at Rockwell,48.45301,-123.419418,0,100846
3151,Estevan at Beach,48.436332,-123.304027,0,100847
3152,Blenkinsop at Union,48.465218,-123.350012,0,100848
3153,Admirals at Gorge,48.453789,-123.419895,0,100849
3154,Uplands at Dewdney,48.444298,-123.309473,0,100850
3155,Admirals at Murray,48.455034,-123.41764,0,100852
3156,Quadra at Reynolds,48.466817,-123.361911,0,100853
3157,Borden at Reynolds,48.466933,-123.360255,0,100854
3158,Interurban at Columbine,48.464029,-123.397118,0,100855
3159,Craigflower at Admirals,48.450573,-123.424,0,100856
3160,Admirals at Murray,48.45471,-123.418582,0,100857
3161,UVic Exchange,48.465883,-123.308503,0,100858
3162,Craigflower at Admirals,48.450766,-123.424088,0,100859
3163,Interurban at Columbine,48.464165,-123.397041,0,100860
3164,Richmond at Poplar,48.459512,-123.329997,0,100861
3165,Cedar Hill Rd. at Cedar Hill Cross Rd.,48.46205,-123.337322,0,100862
3166,Cedar Hill Rd. at Cedar Hill Cross Rd.,48.462202,-123.337406,0,100863
3167,Henderson at Dundrum,48.451296,-123.316008,0,100864
3168,Carey at Columbine,48.465761,-123.390485,0,100865
3169,Carey at Ralph / Glanford,48.464308,-123.387179,0,100866
3170,Shelbourne at Cedar Hill Cross Rd.,48.460974,-123.333077,0,100867
3171,Cedar Hill Cross Rd. at Merriman,48.464204,-123.342388,0,100868
3172,Richmond at Poplar,48.459716,-123.329899,0,100869
3173,Nottingham at Dorset,48.44356,-123.307404,0,100870
3174,UVic Exchange,48.465793,-123.308381,0,100871
3175,Hwy 17 at McKenzie,48.467445,-123.382144,0,100872
3176,Carey at Columbine,48.465927,-123.390507,0,100873
3177,Cedar Hill Cross at Synod,48.463247,-123.338636,0,100874
3178,Hwy 17 at McKenzie,48.467873,-123.37893,0,100875
3179,McKenzie at Glanford,48.466924,-123.386829,0,100876
3180,McKenzie 660 block,48.467513,-123.382264,0,100877
3181,UVic Exchange,48.465933,-123.308221,0,100878
3182,Cedar Hill Cross at Epsom,48.465491,-123.345639,0,100879
3183,Blenkinsop at Downham,48.466489,-123.349993,0,100880
3184,Admirals Walk Shopping Centre,48.447514,-123.427883,0,100881
3185,McKenzie at Carey,48.466467,-123.390576,0,100882
3186,McKenzie at Douglas / Hwy 17 n/b ramp,48.468067,-123.379397,0,100883
3187,McKenzie at Willowbrook,48.467474,-123.384611,0,100884
3188,Quadra at Greenridge,48.468456,-123.363458,0,100885
3189,Cedar Hill Cross at Marjean,48.466249,-123.347719,0,100886
3190,McKenzie at Glanford,48.466898,-123.389204,0,100887
3191,Shelbourne at Cedar Hill Cross Rd.,48.461839,-123.332824,0,100888
3193,McKenzie at Douglas / Hwy 17 n/b ramp,48.468447,-123.378438,0,100890
3194,Saanich at McKenzie,48.468901,-123.371057,0,100891
3195,Saanich at McKenzie,48.469069,-123.370897,0,100892
3196,McKenzie at Nelthorpe,48.468846,-123.373559,0,100893
3197,Glanford at McKenzie,48.467638,-123.388087,0,100894
3198,Quadra at Greenridge,48.468744,-123.363427,0,100895
3199,Island Hwy at Shoreline,48.451748,-123.425625,0,100896
3200,Henderson at Kendal,48.452665,-123.315513,0,100897
3201,Shelbourne at Broadmead,48.462443,-123.333009,0,100898
3202,McKenzie at Carey,48.46651,-123.393512,0,100899
3203,McKenzie at Nelthorpe,48.468918,-123.374247,0,100900
3204,Cedar Hill Cross Rd. at Palo Alto,48.460372,-123.327908,0,100901
3205,Burnside at Marigold,48.463337,-123.404524,0,100902
3206,Burnside at Marigold,48.463425,-123.404397,0,100903
3207,UVic Exchange,48.466202,-123.307949,0,100904
3208,Superior at Oswego,48.419766,-123.376596,0,100905
3209,Carey at McKenzie,48.466834,-123.392724,0,100906
3210,Carey at McKenzie,48.467132,-123.392813,0,100907
3211,Sunheights at Sun Estates,48.415287,-123.513838,0,100908
3212,Cedar Hill Cross Rd. at Margot,48.468313,-123.352807,0,100909
3213,Island Hwy at Glentana - Shoreline Sch,48.452538,-123.428544,0,100910
3214,Cedar Hill Cross Rd. at Iona,48.460544,-123.326974,0,100911
3215,Uplands at Cotswold,48.446656,-123.306772,0,100912
3216,Henderson at Kendal,48.453544,-123.314867,0,100913
3217,Nottingham at Devon,48.4446,-123.305328,0,100914
3218,Douglas at Blackberry,48.469408,-123.379288,0,100915
3219,Blenkinsop at Moorgreen,48.467938,-123.349877,0,100916
3220,Fifth at Malaview,48.656697,-123.400449,0,100917
3221,McKenzie at Quadra,48.469931,-123.366016,0,100918
3222,McKenzie at Quadra,48.470049,-123.363915,0,100919
3223,Burnside at Grange,48.463071,-123.409759,0,100920
3224,Borden at McKenzie,48.468845,-123.360877,0,100921
3225,Cedar Hill at Mortimer,48.465204,-123.336105,0,100922
3226,Quadra at McKenzie,48.470453,-123.365055,0,100923
3227,Interurban at Marigold,48.466402,-123.40127,0,100924
3228,Quadra at McKenzie,48.470481,-123.365475,0,100925
3229,McKenzie at Borden,48.470411,-123.360723,0,100926
3230,McKenzie at Borden,48.470396,-123.362161,0,100927
3231,Burnside at Grange,48.463145,-123.410607,0,100928
3232,Cedar Hill Cross Rd. at Astra,48.470237,-123.356653,0,100929
3233,Esquimalt at Harbour,48.428108,-123.375097,0,100930
3234,Shelbourne at Mortimer,48.464655,-123.332961,0,100931
3235,Henderson at Avondale,48.455291,-123.314414,0,100932
3236,Shelbourne at Mortimer,48.464874,-123.332693,0,100933
3237,Cotswold at Weald,48.446899,-123.304392,0,100936
3238,Henderson at Avondale,48.455456,-123.314264,0,100937
3239,Interurban at Marigold,48.467079,-123.401654,0,100938
3240,Island Hwy at Glentana - Shoreline Sch,48.452708,-123.428922,0,100939
3241,Glanford at Kenneth,48.470064,-123.388773,0,100940
3242,Esquimalt at Harbour,48.428249,-123.375226,0,100941
3243,Cedar Hill Cross Rd. at Mayfair,48.460639,-123.322084,0,100942
3244,Douglas at Sanctuary,48.471078,-123.381002,0,100943
3245,Cedar Hill Cross Rd. at Gordon Head,48.460494,-123.321698,0,100944
3246,Glanford at O'Connell,48.470228,-123.38902,0,100945
3247,Superior at Montreal,48.421153,-123.379469,0,100946
3248,Lansdowne at Ripon,48.444416,-123.301173,0,100947
3249,Cedar Hill at Garnet - Cedar Hill School,48.466661,-123.335928,0,100948
3250,Burnside  at Heritage,48.463592,-123.412508,0,100949
3251,Henderson at Frederick Norris,48.457786,-123.315866,0,100950
3252,Henderson at Frederick Norris,48.457909,-123.315693,0,100951
3253,Jimmy at Stautw,48.588375,-123.378693,0,100952
3254,McKenzie at Century,48.471436,-123.354344,0,100953
3255,Douglas at Superior,48.417802,-123.3658,0,100954
3256,McKenzie at Century,48.471532,-123.354838,0,100955
3257,Cedar Hill Cross Rd. at University Dr,48.459452,-123.317946,0,100956
3258,McKenzie at Oakwinds,48.468581,-123.339372,0,100957
3259,Carey at Norwood,48.469748,-123.395702,0,100958
3260,McKenzie at Oakwinds,48.468797,-123.340229,0,100959
3261,Cedar Hill Cross Rd. at University Dr,48.459501,-123.31763,0,100960
3262,Blenkinsop at Lonsdale,48.471404,-123.350928,0,100961
3263,Helmcken at Camden,48.468039,-123.42489,0,100962
3264,Carey at Norwood,48.469666,-123.395877,0,100963
3265,McKenzie at Long Gun,48.469772,-123.342446,0,100964
3266,Garnet at Cedar Hill,48.467821,-123.334973,0,100965
3267,McKenzie at Blenkinsop,48.471973,-123.351822,0,100966
3268,McKenzie at Blenkinsop,48.47189,-123.350474,0,100967
3269,Midland Circle,48.447687,-123.301392,0,100968
3270,McKenzie 1420 block,48.470492,-123.343006,0,100969
3271,Shelbourne at Garnet,48.467199,-123.332649,0,100970
3272,McKenzie at Cedar Hill,48.468553,-123.334841,0,100971
3273,McKenzie at Shelbourne,48.468737,-123.33349,0,100972
3274,McKenzie 1410 block,48.470868,-123.343919,0,100973
3275,Quadra at Saanich,48.473289,-123.370379,0,100974
3276,McKenzie at Braefoot,48.471743,-123.346429,0,100975
3277,Glanford at Tait,48.471979,-123.389341,0,100976
3278,Quadra at Saanich,48.473399,-123.370266,0,100977
3279,Burnside at Belgrave,48.46518,-123.415335,0,100978
3280,McKenzie at Braefoot,48.472163,-123.347571,0,100979
3281,Shelbourne at McKenzie,48.468035,-123.332865,0,100980
3282,Glanford at Agnes,48.472647,-123.389704,0,100981
3283,McKenzie 1400 block,48.471601,-123.344655,0,100982
3284,Foul Bay at Beaven,48.414251,-123.327945,0,100983
3285,Interurban at Hyacinth,48.469453,-123.403768,0,100984
3286,McKenzie at Cedar Hill,48.468764,-123.335887,0,100985
3287,Lansdowne at Norfolk,48.444507,-123.296982,0,100986
3288,Interurban at Hyacinth,48.469664,-123.403703,0,100987
3289,McKenzie at Shelbourne,48.468523,-123.332067,0,100988
3290,Burnside at Wilkinson,48.465484,-123.416345,0,100989
3291,Wilkinson at Burnside Rd W,48.465612,-123.415904,0,100990
3292,Ring Rd. at Parking Lot '6',48.461922,-123.316057,0,100991
3293,Wilkinson at Burnside Rd W,48.466362,-123.415121,0,100992
3294,Burnside at Mildred,48.465488,-123.417182,0,100993
3295,Shelbourne at McKenzie,48.469324,-123.332629,0,100994
3296,Shelbourne at University Hghts S.C.,48.47056,-123.332825,0,100995
3297,Douglas at Rogers,48.474984,-123.383499,0,100996
3298,Midland at Beach,48.451963,-123.301332,0,100997
3299,McKenzie at Cedarwood,48.468698,-123.330536,0,100998
3300,McKenzie at Cedarwood,48.468545,-123.328026,0,100999
3301,Quadra at Ambassador,48.475816,-123.373002,0,101000
3302,Island Hwy at Plowright,48.453724,-123.437177,0,101001
3303,Island Hwy at Plowright,48.453612,-123.437294,0,101002
3304,Cedar Hill at Hopesmore,48.471382,-123.335006,0,101003
3305,Quadra at Ambassador,48.476504,-123.373612,0,101004
3306,Beach at Ripon,48.451751,-123.299627,0,101005
3307,Cedar Hill at Hopesmore,48.471258,-123.334774,0,101006
3308,Stautw at Church,48.58915,-123.385231,0,101007
3309,Interurban at Grange,48.471636,-123.405457,0,101008
3310,Carey at Baker,48.474023,-123.397098,0,101009
3311,Glanford at Baker,48.475197,-123.3904,0,101010
3312,Ring Rd. at McGill,48.463693,-123.316353,0,101011
3313,Carey at Baker,48.473957,-123.397307,0,101012
3314,Beach at Lansdowne,48.446485,-123.294366,0,101013
3315,Glanford at Baker,48.475347,-123.390281,0,101014
3316,Wilkinson at Tulip,48.468834,-123.413994,0,101015
3317,Burnside at High St,48.465975,-123.420672,0,101016
3318,Wilkinson at South Valley Drive,48.46778,-123.414128,0,101017
3319,Beach at Ripon,48.450806,-123.297877,0,101018
3320,McKenzie at Larchwood,48.468683,-123.325086,0,101019
3321,McKenzie at Fleet,48.468539,-123.323629,0,101020
3322,Beach at Midland,48.454469,-123.30087,0,101021
3323,Interurban at Chesterfield,48.472483,-123.405917,0,101022
3324,Beach at Humber,48.448884,-123.294747,0,101023
3325,Beach at Midland,48.454624,-123.30066,0,101024
3326,Helmcken at Parkcrest,48.459937,-123.433073,0,101025
3327,Helmcken at Midwood,48.458515,-123.435062,0,101026
3328,Quadra at Rogers,48.477778,-123.375417,0,101027
3329,Shelbourne at Glencraig,48.472316,-123.332776,0,101028
3330,Mt Newton Cross Rd. at Church,48.591121,-123.384579,0,101029
3331,Wilkinson 3930 block,48.470731,-123.412236,0,101030
3332,Helmcken at Werra,48.459873,-123.433398,0,101031
3333,Helmcken at Caton,48.458481,-123.435468,0,101032
3334,Burnside at Eaton,48.466797,-123.422731,0,101033
3335,Quadra at Rogers,48.478428,-123.375977,0,101034
3336,Ring Rd. at Parking Lot '1',48.461773,-123.308363,0,101036
3337,McKenzie at Gordon Head,48.46849,-123.320924,0,101037
3338,Burnside at Eaton,48.467119,-123.422962,0,101038
3339,Shelbourne at Blair,48.473198,-123.332487,0,101039
3340,Glanford at Judah,48.47732,-123.390815,0,101040
3341,Blair at Birchwood,48.472852,-123.330884,0,101041
3342,Glanford at Judah,48.477374,-123.391036,0,101042
3343,McKenzie at Gordon Head,48.468706,-123.320902,0,101043
3344,Lily at Douglas,48.47819,-123.384483,0,101044
3345,Blair at Magdelin,48.47295,-123.330395,0,101045
3346,Helmcken at Hwy 1 s/b ramp,48.463329,-123.431169,0,101046
3347,Lily at Lark,48.478689,-123.382016,0,101047
3348,McCallum Rd 799 Block - Costco driveway,48.45925,-123.502676,0,101048
3349,Cedar Hill at Feltham,48.474849,-123.33531,0,101049
3350,Island Hwy at Helmcken,48.455599,-123.440501,0,101050
3351,Helmcken at Island Hwy,48.456419,-123.440493,0,101051
3352,Helmcken at Hwy 1 s/b ramp,48.463305,-123.431559,0,101052
3353,Cadboro Bay at Vista Bay,48.457381,-123.300212,0,101053
3354,Carey at Judah,48.476609,-123.398725,0,101054
3355,Trans-Canada Hwy at Helmcken,48.463412,-123.43165,0,101055
3356,Interurban at Meadowview,48.474199,-123.407476,0,101056
3357,Island Hwy at Helmcken,48.456385,-123.441541,0,101057
3358,Cadboro Bay at Vista Bay,48.457408,-123.300412,0,101058
3359,Carey at Judah,48.476956,-123.399088,0,101059
3360,Cedar Hill at Feltham,48.47537,-123.335505,0,101060
3361,Interurban at Meadowview,48.47462,-123.407589,0,101061
3362,Stautw at Pullock,48.590273,-123.387393,0,101062
3363,Trans-Canada Hwy at Helmcken,48.464514,-123.431,0,101063
3364,Helmcken at Hwy 1 n/b ramp,48.464583,-123.430446,0,101064
3365,Blair at Carnegie,48.472824,-123.326329,0,101065
3366,Blair at Carnegie,48.472952,-123.327082,0,101066
3367,Helmcken at Burnside Rd W,48.46917,-123.423309,0,101067
3368,Helmcken at Burnside Rd W,48.468247,-123.424714,0,101068
3369,Helmcken at Hwy 1 n/b ramp,48.464561,-123.430861,0,101069
3370,Cedar Hill at Craigiewood,48.476601,-123.337288,0,101070
3371,Wilkinson at Helen,48.474156,-123.412655,0,101071
3372,Cedar Hill at Craigiewood,48.476715,-123.337183,0,101072
3373,Wilkinson at Helen,48.473806,-123.412843,0,101073
3374,Shelbourne at Feltham,48.475657,-123.332825,0,101074
3375,UVic Exchange,48.465978,-123.309529,0,101076
3376,Shelbourne at Feltham,48.475647,-123.332634,0,101077
3377,Laval at Larchwood,48.473188,-123.324763,0,101078
3378,Cadboro Bay at Bermuda,48.459262,-123.299682,0,101079
3379,Watkiss Wy at Helmcken - Eagle Creek Vlg,48.46715,-123.429466,0,101080
3380,Watkiss Wy at Helmcken - Eagle Creek Vlg,48.467329,-123.429448,0,101081
3381,Laval at Larchwood,48.473307,-123.324928,0,101083
3382,Helmcken at Knockan,48.472619,-123.418482,0,101085
3383,Quadra at Beckwith,48.481182,-123.378229,0,101086
3384,Glanford at Leaside,48.480233,-123.391216,0,101087
3385,Helmcken at Knockan,48.472083,-123.418966,0,101088
3386,Quadra at Beckwith,48.481381,-123.378133,0,101089
3387,Island Hwy at Jedburgh,48.457771,-123.443626,0,101090
3388,Island Hwy at Jedburgh,48.457748,-123.44343,0,101091
3389,Carey at Oakridge,48.47873,-123.399532,0,101092
3390,Carey at Oakridge,48.478897,-123.399375,0,101093
3391,Holland at Helmcken,48.471149,-123.422736,0,101094
3392,Helmcken at Lidgate,48.47428,-123.415552,0,101095
3393,Holland at Helmcken,48.471181,-123.42255,0,101096
3394,Wilkinson at Glen Tara,48.475521,-123.412371,0,101097
3395,Glanford at Leaside,48.479986,-123.391131,0,101098
3396,Laval at Loyola,48.473145,-123.320922,0,101099
3397,Cadboro Bay at Killarney,48.46013,-123.298556,0,101100
3398,Sinclair at Clarndon,48.46518,-123.30524,0,101101
3399,Shelbourne at Torquay,48.477589,-123.333907,0,101102
3400,Shelbourne at Torquay,48.47754,-123.333598,0,101103
3401,Wilkinson at Glen Tara,48.475858,-123.41185,0,101104
3402,Feltham at Lambrick,48.476087,-123.327845,0,101105
3403,Laval at Loyola,48.473264,-123.321115,0,101106
3404,McKenzie at Vikes Way,48.468957,-123.312247,0,101107
3405,Feltham at Lambrick,48.475965,-123.328023,0,101108
3406,Sinclair at Clarndon,48.465478,-123.305404,0,101109
3407,Laval 1870 block - Mt. Doug School,48.472183,-123.317423,0,101110
3409,Laval at Gordon Head,48.47231,-123.31707,0,101113
3410,Sinclair at Haro,48.464042,-123.302865,0,101114
3412,College at Thetis,48.436715,-123.461226,0,101116
3413,Cadboro Bay at Sinclair,48.460872,-123.29791,0,101117
3414,Holland 3940 block,48.472934,-123.422393,0,101118
3415,Victoria General Hospital,48.466229,-123.435022,0,101119
3416,Glanford at Enterprise,48.482331,-123.389871,0,101120
3417,Sinclair at Hobbs,48.461637,-123.298585,0,101121
3418,Cedar Hill at Cedarglen,48.480108,-123.339925,0,101122
3419,Feltham at Cabot,48.475977,-123.325251,0,101123
3420,Holland 3940 block,48.472912,-123.422192,0,101124
3421,Belmont at Lascelles,48.437263,-123.461874,0,101125
3422,Cadboro Bay at Sinclair,48.461371,-123.296889,0,101126
3423,Langford Pkwy at Attree,48.443176,-123.507946,0,101127
3424,Glanford at Enterprise,48.482525,-123.389987,0,101128
3425,Gordon Head at Laval,48.472541,-123.315247,0,101129
3426,Shelbourne at Cedarglen,48.479582,-123.335436,0,101130
3427,Cedar Hill at Cedarglen,48.480821,-123.339531,0,101131
3428,Island Hwy at Prince Robert,48.45923,-123.445372,0,101132
3429,Interurban at Wilkinson,48.477688,-123.410248,0,101133
3430,Ridgebank at Oakridge,48.481082,-123.398988,0,101134
3431,Island Hwy at Prince Robert,48.459259,-123.445126,0,101135
3432,Interurban 4140 block,48.47725,-123.409714,0,101136
3433,Feltham at Tyndall,48.476099,-123.32366,0,101137
3434,Ridgebank at Springridge,48.48138,-123.398993,0,101138
3435,Shelbourne at Cedarglen,48.480104,-123.335612,0,101139
3436,Quadra at Caen,48.484049,-123.380293,0,101140
3437,Watkiss Way at Stoneridge,48.46609,-123.438082,0,101141
3438,Hastings at Wilkinson,48.47845,-123.411705,0,101142
3439,Hospital Way at Watkiss Way,48.466922,-123.436315,0,101143
3440,Hastings at Wilkinson,48.478298,-123.411561,0,101144
3441,Watkiss Way at Hospital Way,48.467683,-123.436007,0,101145
3442,Quadra at Caen,48.484493,-123.380562,0,101146
3443,Watkiss Way at Stoneridge,48.466205,-123.438158,0,101147
3444,Holland at Blue Ridge,48.474854,-123.422024,0,101148
3445,Tyndall at Feltham,48.476772,-123.32296,0,101149
3446,Holland at Blue Ridge,48.475412,-123.421737,0,101150
3447,Cadboro Bay at Maynard,48.461854,-123.29489,0,101151
3448,Cadboro Bay at Maynard,48.461954,-123.295119,0,101152
3449,Gordon Head at Fairburn,48.473732,-123.314103,0,101153
3450,Finnerty at Edgelow,48.469059,-123.305302,0,101154
3451,Interurban at Dunsterville,48.479249,-123.411444,0,101155
3452,Watkiss Way at Talcott,48.464832,-123.441678,0,101156
3453,Finnerty at Edgelow,48.469355,-123.304694,0,101157
3454,Interurban at Wilkinson,48.479704,-123.411603,0,101158
3455,Glanford at Lodi,48.484582,-123.388889,0,101159
3456,Shelbourne at Arbordale,48.48175,-123.336564,0,101160
3457,Vanalman at Ridgebank,48.483342,-123.396359,0,101161
3458,Vanalman at Ridgebank,48.483224,-123.396502,0,101162
3459,Watkiss Way at Talcott,48.464762,-123.442944,0,101163
3460,Quadra at Chatterton,48.485276,-123.381812,0,101164
3461,Glanford at Lodi,48.484634,-123.388648,0,101165
3462,Quadra at Chatterton,48.48576,-123.382128,0,101166
3463,Cadboro Bay at Cherrilee,48.461272,-123.292408,0,101167
3464,Shelbourne at Arbordale,48.482325,-123.336432,0,101168
3465,Cadboro Bay at Cherrilee,48.461583,-123.292747,0,101169
3466,Tyndall at San Pedro,48.478299,-123.32313,0,101170
3467,Hastings at Santa Anita,48.479202,-123.415392,0,101171
3468,Belmont at Egerton,48.43881,-123.465545,0,101173
3469,Gordon Head at Ventura,48.474518,-123.312973,0,101174
3470,Holland 4050 block,48.477179,-123.421596,0,101175
3472,Langford Pkwy at Veterans Memorial Pkwy,48.442233,-123.50389,0,101177
3473,Westshore Pkwy at Bombardier,48.444108,-123.536688,0,101178
3474,Holland 4050 block,48.477163,-123.421424,0,101179
3475,Cedar Hill at Kenmore,48.483564,-123.339326,0,101181
3476,Island Hwy at Knollwood,48.460197,-123.450335,0,101182
3477,Island Hwy at Knollwood,48.45974,-123.44919,0,101183
3478,Westshore Pkwy at Bombardier,48.443698,-123.536351,0,101184
3479,Westshore Pkwy at Commander Crt,48.442094,-123.535551,0,101185
3480,Cadboro Bay at Dawe,48.459817,-123.288913,0,101186
3481,Cedar Hill at Kenmore,48.483766,-123.339109,0,101187
3482,Emily Carr at Maltwood,48.486906,-123.381093,0,101188
3483,Hastings at Delmar,48.479416,-123.417843,0,101189
3484,Watkiss Way at Burnside Rd W,48.464519,-123.445485,0,101190
3485,Glanford at Mann,48.48636,-123.387916,0,101191
3486,Hastings at Delmar,48.479317,-123.418151,0,101192
3487,Arbutus at Qu. Alexandra Childrens Hosp.,48.469579,-123.301256,0,101193
3488,Cadboro Bay at Dawe,48.459824,-123.288568,0,101195
3489,Shelbourne at Kenmore,48.483693,-123.337075,0,101196
3490,Emily Carr at Maltwood,48.487019,-123.38126,0,101197
3491,Glanford at Mann,48.486291,-123.387765,0,101198
3492,Vanalman at Parkridge,48.484937,-123.398408,0,101199
3493,Vanalman at Parkridge,48.485096,-123.398248,0,101200
3494,Arbutus at Haro,48.467908,-123.298187,0,101201
3495,Arbutus at Qu. Alexandra Childrens Hosp.,48.469682,-123.301083,0,101202
3496,Gordon Head at Graduation,48.475613,-123.312003,0,101203
3497,Watkiss Way at Burnside Rd W,48.465076,-123.446313,0,101204
3498,Arbutus at Haro,48.468108,-123.298266,0,101205
3499,Arbutus at Rowley,48.466777,-123.296176,0,101206
3500,Kenmore at Shelbourne,48.484155,-123.336449,0,101207
3501,Arbutus at Hobbs,48.465393,-123.293749,0,101208
3502,Belmont at Ocean Blvd,48.440518,-123.466713,0,101209
3503,Shelbourne at Kenmore,48.484441,-123.336863,0,101210
3504,Arbutus at Rowley,48.466861,-123.296039,0,101211
3505,Kenmore at Columbia,48.482822,-123.330317,0,101212
3506,Kenmore at Torquay,48.481931,-123.327001,0,101213
3507,Arbutus at Hobbs,48.465988,-123.294517,0,101214
3508,Holland at Hastings,48.479322,-123.420999,0,101215
3509,Holland at Hastings,48.479108,-123.421242,0,101216
3510,Chatterton 4430 block,48.488414,-123.38304,0,101217
3511,Kenmore at Columbia,48.482952,-123.330246,0,101218
3512,Kenmore at Majestic,48.484051,-123.334312,0,101219
3513,Tyndall at San Pedro,48.479017,-123.322947,0,101220
3514,Emily Carr at Crownwood,48.488348,-123.376468,0,101221
3515,Kenmore at Torquay,48.482267,-123.327796,0,101222
3516,Gordon Head at Lifton,48.476181,-123.311062,0,101224
3517,Emily Carr at Crownwood,48.488339,-123.377766,0,101225
3518,Arbutus at Sherwood,48.463621,-123.290504,0,101226
3519,Watkiss Way at Creed,48.463496,-123.449787,0,101227
3520,Watkiss Way at Creed,48.463696,-123.449691,0,101228
3521,Lagoon at Ocean,48.416964,-123.472531,0,101229
3522,Telegraph Bay at Seaview,48.460094,-123.286039,0,101230
3523,Arbutus at Sherwood,48.463725,-123.290373,0,101231
3524,Colwood Exchange - Westshore Rec Ctr,48.444953,-123.466198,0,101232
3525,Majestic at Prairie,48.484605,-123.333192,0,101233
3526,Chatterton 4420 block,48.488209,-123.383192,0,101234
3527,Arbutus at Lauder,48.462255,-123.288001,0,101235
3528,Tyndall at Francisco,48.481583,-123.322413,0,101236
3529,Tyndall at Kenmore,48.48143,-123.322733,0,101238
3530,Telegraph Bay at Green Vale,48.460216,-123.285585,0,101239
3531,Arbutus at Lauder,48.462399,-123.287982,0,101240
3532,Colwood Exchange - Westshore Rec Ctr,48.445877,-123.466523,0,101241
3533,Emily Carr at Parkwood,48.489626,-123.372958,0,101242
3534,Emily Carr at Parkwood,48.489566,-123.37277,0,101243
3535,Arbutus at Lexington,48.473741,-123.303915,0,101244
3536,Colwood Exchange - Westshore Rec Ctr,48.444256,-123.467907,0,101245
3537,Gordon Head at Greenlands,48.477229,-123.31008,0,101246
3538,Arbutus at Lexington,48.473804,-123.303762,0,101247
3539,Majestic at Prairie,48.484909,-123.333191,0,101248
3540,Lagoon at Lanai,48.418507,-123.475346,0,101249
3541,Shelbourne at Elnido,48.486354,-123.337629,0,101250
3542,Island Hwy at Wilfert - Elements Casino,48.45257,-123.462784,0,101251
3543,Watkiss Way at Marler,48.461936,-123.453801,0,101252
3544,Watkiss Way at Marler,48.462071,-123.453723,0,101253
3545,Island Hwy at Six Mile Rd.,48.458665,-123.458124,0,101254
3546,Sooke Rd. at Goldstream,48.441545,-123.470038,0,101255
3547,Gordon Head at Greenlands,48.477249,-123.309817,0,101256
3548,West Saanich 4360 block,48.48988,-123.385796,0,101257
3549,Vanalman at Northridge,48.487354,-123.397905,0,101258
3550,Vanalman at Northridge,48.487702,-123.397614,0,101259
3551,Island Hwy at Wilfert - Elements Casino,48.451628,-123.463826,0,101260
3552,Sooke Rd. at Goldstream,48.441634,-123.470282,0,101261
3553,Island Hwy at Six Mile Rd.,48.45876,-123.457571,0,101262
3554,Interurban at Charlton,48.484054,-123.414402,0,101263
3555,Interurban at Charlton,48.483577,-123.414316,0,101264
3556,Tyndall at San Juan,48.482725,-123.32196,0,101265
3558,San Juan at Tyndall,48.482754,-123.321332,0,101267
3559,Shelbourne at San Juan,48.486907,-123.337376,0,101268
3560,Arbutus at Arbutus,48.459307,-123.281681,0,101269
3561,Royal Roads University / Hatley Castle,48.435386,-123.471545,0,101270
3562,Arbutus at Ebony,48.47682,-123.30626,0,101271
3563,San Juan at Chartwell,48.481626,-123.31723,0,101272
3564,Lagoon at Goldfinch,48.419091,-123.476608,0,101273
3565,Tyndall at San Juan,48.483067,-123.321537,0,101274
3566,Goldstream at Sooke Rd.,48.442621,-123.471179,0,101275
3567,Milburn at Hockering,48.418197,-123.479094,0,101276
3568,San Juan at Chartwell,48.481617,-123.316738,0,101277
3569,Arbutus at Ebony,48.477622,-123.30646,0,101278
3570,Goldstream at Sooke Rd.,48.44253,-123.471399,0,101279
3571,San Juan at Hillcrest,48.480393,-123.312659,0,101280
3572,Vanalman at Mann,48.488925,-123.398652,0,101281
3573,San Juan at San Pedro,48.480821,-123.313716,0,101282
3574,Vanalman at Mann,48.488932,-123.398812,0,101283
3575,Highland Loop,48.462067,-123.456523,0,101284
3576,Majestic at Dougall,48.486906,-123.332025,0,101285
3577,Arbutus at Juan De Fuca,48.459739,-123.280359,0,101286
3578,Arbutus at Arbutus Pl,48.457731,-123.278126,0,101287
3579,San Juan at Wakefield,48.479484,-123.309175,0,101288
3580,Six Mile Rd. at Damon,48.45739,-123.462073,0,101289
3581,San Juan at Wakefield,48.479383,-123.308431,0,101290
3582,Six Mile Rd. at Damon,48.457584,-123.462469,0,101291
3583,Shelbourne at Robinwood,48.488977,-123.338073,0,101292
3584,Interurban at Courtland,48.486069,-123.415724,0,101293
3585,Gordon Head at San Juan,48.479256,-123.307471,0,101294
3586,Mann at Wilkinson,48.489515,-123.400602,0,101295
3587,Milburn at Hatley,48.419426,-123.480675,0,101296
3588,Emily Carr at Thistlewood,48.49241,-123.372274,0,101297
3589,Mann at Wilkinson,48.489714,-123.400835,0,101298
3590,Majestic at Hawthorne,48.487895,-123.331223,0,101299
3591,Emily Carr at Owlwood,48.492668,-123.371089,0,101300
3592,Shelbourne at Robinwood,48.489351,-123.337783,0,101301
3593,Interurban at Alan - P.I.S.E.,48.486895,-123.415478,0,101302
3594,Lagoon at Heatherbell,48.420793,-123.480233,0,101303
3595,Atkins at Country,48.449925,-123.47025,0,101304
3596,Tyndall at Hillcrest,48.485233,-123.320231,0,101305
3597,Chatterton at Dalewood,48.493054,-123.38399,0,101306
3598,Atkins at Myra,48.452388,-123.468733,0,101307
3599,Tyndall at Hillcrest,48.48542,-123.320304,0,101308
3600,Atkins at Country,48.450028,-123.470419,0,101309
3601,Sooke Rd. at Aldeane - Royal Roads U.,48.439995,-123.476686,0,101310
3603,Atkins at Myra,48.452545,-123.468958,0,101312
3604,Chatterton at Dalewood,48.493469,-123.383599,0,101313
3606,West Saanich at Royal Oak Shopping Ctr,48.492843,-123.387293,0,101316
3607,Island View at Hwy 17,48.572451,-123.400268,0,101317
3608,West Saanich at Royal Oak Shopping Ctr,48.492801,-123.387518,0,101318
3609,Arbutus 2800 block,48.459352,-123.275822,0,101319
3610,Atkins at Anya,48.456461,-123.467399,0,101320
3611,Emily Carr at Shadywood,48.494416,-123.367939,0,101321
3612,Atkins at Anya,48.456442,-123.467201,0,101322
3613,Emily Carr at Lohbrunner Rd W,48.494041,-123.368346,0,101323
3614,Wilkinson at Miller,48.491193,-123.400579,0,101324
3615,Sooke Rd. at Aldeane - Royal Roads U.,48.439776,-123.478112,0,101325
3616,Goldstream at Wale,48.443992,-123.475923,0,101326
3617,Majestic at Wycliffe,48.489796,-123.330278,0,101327
3618,Wilkinson at Lindsay,48.492246,-123.399877,0,101328
3619,Majestic at Edgemont,48.490116,-123.329869,0,101329
3620,Goldstream at Wale,48.443576,-123.475049,0,101330
3621,Gordon Head at Sage,48.481396,-123.305335,0,101331
3622,Gordon Head at Sage,48.481407,-123.305079,0,101332
3623,Chatterton at Royal Oak Av.,48.494632,-123.384631,0,101333
3624,Westshore Pkwy at Commander Crt,48.441561,-123.536189,0,101334
3625,Chatterton at Royal Oak Av.,48.4947,-123.384434,0,101335
3626,Benhomer at Metchosin,48.417053,-123.48341,0,101336
3627,Lagoon at Christopher,48.420318,-123.484153,0,101337
3628,Metchosin at Farview,48.418505,-123.48399,0,101338
3629,Metchosin at Daniel,48.417901,-123.48382,0,101339
3630,Lagoon at Christopher,48.420192,-123.484078,0,101340
3631,Interurban at Hector - P.I.S.E.,48.489105,-123.418064,0,101341
3632,Atkins 370 block,48.447651,-123.476963,0,101342
3633,Benhomer at Swindell,48.417197,-123.48441,0,101343
3634,Ferndale at Houlihan,48.483676,-123.305811,0,101344
3635,West Saanich at Elk Lake Dr.,48.49569,-123.389282,0,101345
3636,Majestic at Michelle,48.49142,-123.329088,0,101346
3637,Interurban at Hector,48.489028,-123.417635,0,101347
3638,Atkins 360 block,48.447555,-123.477454,0,101348
3639,Ferndale at Houlihan,48.483447,-123.305503,0,101349
3640,Metchosin at Farview,48.419242,-123.484754,0,101350
3641,Chatterton 4540 block,48.496563,-123.383551,0,101351
3642,West Saanich at Elk Lake Dr.,48.495795,-123.389639,0,101352
3643,Chatterton 4550 block,48.496439,-123.383248,0,101353
3644,Majestic at Ash,48.492113,-123.32887,0,101354
3645,Tyndall at Grandview,48.488058,-123.318464,0,101355
3646,Emily Carr at Rithetwood,48.496998,-123.366478,0,101356
3647,Tyndall at Grandview,48.488809,-123.318256,0,101357
3648,Ferndale at Evergreen,48.485026,-123.30732,0,101358
3649,Ferndale at Grandview,48.485257,-123.307691,0,101359
3650,Wilkinson at Greenlea,48.495363,-123.397251,0,101360
3651,Ash at Bissenden,48.491151,-123.32407,0,101361
3652,Royal Oak Dr. at Royal Oak Av.,48.497505,-123.372952,0,101362
3653,Ash at Torquay,48.490603,-123.321867,0,101363
3654,Wilkinson at Greenlea,48.495277,-123.397856,0,101364
3655,Camosun - Interurban Campus Loop,48.490536,-123.418738,0,101365
3656,Chatterton at Royal Oak Dr.,48.49709,-123.379819,0,101366
3657,Ash at Bissenden,48.491444,-123.324675,0,101367
3658,Ash at Torquay,48.49071,-123.321765,0,101368
3659,Chatterton at Royal Oak Dr.,48.497136,-123.380046,0,101369
3660,Royal Oak Dr. at Chatterton,48.497495,-123.377643,0,101370
3661,Metchosin at Painter,48.421875,-123.486833,0,101371
3662,Royal Oak Dr. at Royal Oak Av.,48.497738,-123.373954,0,101372
40015,Thetis Lake Parking Lot,48.462878,-123.467407,0,101373
3663,Atkins at Crystalview,48.450052,-123.478116,0,101374
3664,Interurban at Camosun College,48.490687,-123.419303,0,101375
3665,Metchosin at Sangster,48.421361,-123.486751,0,101376
3666,Atkins at Crystalview,48.449967,-123.478279,0,101377
3667,Goldstream at Kristina,48.445256,-123.48108,0,101378
3668,Ferndale at Saltair,48.486327,-123.307885,0,101379
3669,Goldstream at Kristina,48.445521,-123.481647,0,101380
3670,Royal Oak at Falaise Dr - Broadmead Vlg,48.498045,-123.380602,0,101381
3671,Royal Oak at Tanglewood,48.498463,-123.369546,0,101382
3672,Cordova Bay at Ash,48.495838,-123.336051,0,101383
3673,Emily Carr at Carolwood,48.498441,-123.366084,0,101384
3674,Benhomer at Tibbitt,48.417808,-123.487501,0,101385
3675,VI Technology Park Main Entrance,48.493867,-123.409914,0,101386
3676,Cordova Bay at Ash,48.495895,-123.335863,0,101387
3677,Metchosin at Raynerwood,48.424185,-123.488286,0,101388
3678,Wilkinson at Travino Ln,48.497255,-123.394883,0,101389
3679,Ferndale at Saltair,48.486698,-123.307575,0,101390
3680,Markham at V.I. Tech Park,48.49419,-123.411763,0,101391
3681,Markham at West Saanich,48.500191,-123.40325,0,101392
3682,Royal Oak at Tanglewood,48.498697,-123.369368,0,101393
3683,Markham at West Saanich,48.500047,-123.403117,0,101394
3684,Markham - V.I. Tech Park,48.49438,-123.411752,0,101395
3685,Tyndall at Leabrook,48.490417,-123.317113,0,101396
3686,Wilkinson at Travino Ln,48.497212,-123.39472,0,101397
3687,Benhomer at Painter,48.418266,-123.488761,0,101398
3688,West Saanich at Pipeline,48.497761,-123.39222,0,101399
3690,Royal Oak Exch / Broadmead Vlg,48.498632,-123.384255,0,101401
3691,Royal Oak at Falaise Dr - Broadmead Vlg,48.498713,-123.382136,0,101402
3692,Markham 4540 block,48.497013,-123.404929,0,101403
3693,Emily Carr at Carolwood,48.499211,-123.366838,0,101404
3694,Tyndall at Barrie,48.491,-123.316973,0,101405
3695,Markham 4530 block,48.496383,-123.405463,0,101406
3696,Royal Oak Exch / Broadmead Vlg,48.498697,-123.385973,0,101407
3698,Painter at Sue Mar,48.417194,-123.489557,0,101409
3699,Ferndale at Seawood,48.491123,-123.315432,0,101410
3700,Interurban at Hughes,48.491641,-123.419772,0,101411
3701,Royal Oak at West Saanich,48.4985,-123.393149,0,101412
3702,Royal Oak at Emily Carr,48.499916,-123.367124,0,101413
3705,Royal Oak Exchange,48.499152,-123.387383,0,101416
3706,Painter at Bidwell,48.417053,-123.489846,0,101417
3707,Royal Oak at Amblewood,48.49988,-123.366909,0,101418
3708,Sooke Rd. at Acacia,48.437041,-123.486598,0,101419
3709,Ferndale at Seawood,48.491142,-123.315004,0,101420
3710,Ferndale at Pomona,48.490087,-123.311596,0,101421
3711,Ferndale at Pauls,48.488412,-123.306993,0,101422
3712,Ferndale at Pauls,48.488324,-123.307213,0,101423
3714,Sooke Rd. at Mount View,48.436723,-123.487454,0,101425
3715,Ferndale at Pomona,48.490289,-123.31181,0,101426
3716,Metchosin at Wishart,48.426052,-123.490367,0,101427
3717,Ferndale at Vantreight,48.48922,-123.308406,0,101428
3718,Royal Oak at Smokey Smith,48.499164,-123.392156,0,101429
3720,Ferndale at Vantreight,48.489367,-123.308447,0,101431
3722,Wishart at Allandale,48.424655,-123.491453,0,101433
3723,Interurban at Conway,48.493486,-123.419654,0,101434
3724,Interurban at Conway,48.493577,-123.419456,0,101435
3725,Metchosin at Wishart,48.427208,-123.491574,0,101436
3726,Sooke Rd. at Ledsham,48.43536,-123.489858,0,101437
3727,Elk Lake Dr. at Commonwealth Place,48.501191,-123.386186,0,101438
3728,Elk Lake Dr. at Commonwealth Place,48.500403,-123.387066,0,101439
3729,Royal Oak at Lochside,48.501351,-123.36261,0,101440
3730,Dressler 440 block,48.416448,-123.492521,0,101441
3731,Atkins at Leggett,48.450011,-123.484354,0,101442
3732,Sooke Rd. at Kelly,48.435456,-123.48996,0,101443
3733,Wishart at Owens,48.421972,-123.492973,0,101444
3734,Metchosin at Laren,48.42787,-123.492592,0,101445
3735,Royal Oak at Lochside,48.501758,-123.360856,0,101446
3736,Dressler 430 block,48.416541,-123.4924,0,101447
3737,Royal Oak Exchange,48.498866,-123.386955,0,101448
3738,Markham at Parking Lot 3,48.492969,-123.414247,0,101449
3739,Metchosin at Laren,48.42806,-123.492578,0,101450
3740,Metchosin at Farhill,48.399987,-123.490533,0,101451
3741,Kelly at Sooke Rd.,48.435242,-123.491996,0,101452
3742,Sooke Rd. at Heatherly,48.434398,-123.49229,0,101453
3743,Royal Oak at McMorran,48.502558,-123.359398,0,101454
3744,Metchosin at Farhill,48.400093,-123.490696,0,101455
3745,Goldstream at Grainger,48.446249,-123.487459,0,101456
3746,Selwyn at Selwyn Oaks,48.450464,-123.485839,0,101457
3747,Dressler at Wishart,48.416852,-123.494453,0,101458
3748,Markham at Parking Lot 3,48.493017,-123.414689,0,101459
3749,Kelly at Sooke Rd.,48.43517,-123.492203,0,101460
3750,Interurban at Delmar,48.495212,-123.419377,0,101461
3751,Selwyn at Selwyn Oaks,48.450406,-123.486023,0,101462
3752,Sooke Rd. at Ridley,48.434271,-123.493082,0,101463
3753,Wishart at Stornoway,48.418819,-123.495007,0,101464
3755,Wishart at Webb,48.417908,-123.495103,0,101466
3756,Goldstream at Grainger,48.446423,-123.487724,0,101467
3757,Wishart at Acland,48.420406,-123.495369,0,101468
3758,Colwood Exch / Westshore Rec Ctr,48.44511,-123.466357,0,101469
3759,Wishart at Rockwood,48.416105,-123.495597,0,101470
3760,Selwyn at Downhome,48.452417,-123.486045,0,101471
3761,Royal Oak at Firbank,48.503322,-123.35642,0,101472
3762,Metchosin at Eiderwood,48.43078,-123.494893,0,101473
3763,Wishart at Dressler,48.417321,-123.495634,0,101474
3764,Cordova Bay 4560 block,48.501705,-123.343322,0,101475
3765,Cordova Bay at Westbank,48.502526,-123.343999,0,101476
3766,Elk Lake at Marsett,48.504009,-123.385644,0,101477
3767,Elk Lake at Marsett,48.503309,-123.385896,0,101478
3768,Metchosin at Trout,48.43199,-123.495355,0,101479
3769,Metchosin at Cedarcrest,48.431343,-123.495312,0,101480
3770,Royal Oak at Blenkinsop,48.503667,-123.35516,0,101481
3771,Stornoway at Strathdee,48.418581,-123.496409,0,101482
3772,Cordova Bay at Lavinia,48.503295,-123.349531,0,101483
3773,Selwyn at Wynwood,48.453117,-123.486519,0,101484
3774,Cordova Bay at Lavinia,48.503439,-123.349576,0,101485
3775,Kelly at Metchosin,48.435826,-123.494763,0,101486
3776,Cairndale at Willowdale,48.419879,-123.497229,0,101487
3777,Kelly at Metchosin,48.436249,-123.495948,0,101488
3778,Westshore Pkwy at Kettle Lake Dr.,48.454131,-123.541414,0,101489
3779,Interurban at Viaduct Ave W,48.498524,-123.419438,0,101490
3780,Westshore Pkwy at Kettle Lake Dr.,48.453697,-123.541712,0,101491
3781,Selwyn at Leckfield,48.455701,-123.486679,0,101492
3782,Interurban at Viaduct Ave W,48.499109,-123.419171,0,101493
3783,Selwyn at Mill Hill,48.456031,-123.487096,0,101494
3784,Cairndale at Brenda,48.420346,-123.499244,0,101495
3785,Wishart 3480 block,48.411779,-123.498567,0,101496
3787,Stornoway at Rothnie,48.418975,-123.499481,0,101498
3788,Metchosin at Pelican,48.39854,-123.494531,0,101499
3789,Quayle at Beaver - The Gardens at HCP,48.501418,-123.413943,0,101500
3790,Sooke Rd 3770 block,48.41133,-123.585888,0,101501
3791,Duke Rd E at Haystock,48.397123,-123.495469,0,101502
3792,Beaver at Quayle - The Gardens at HCP,48.501615,-123.413839,0,101503
3793,Metchosin at Pelican,48.398592,-123.495437,0,101504
3794,Sooke Rd. at Lynnlark,48.43168,-123.498902,0,101505
3795,Duke Rd E at Haystock,48.396824,-123.495745,0,101506
3796,Goldstream at Vets Memorial,48.446916,-123.494078,0,101507
3797,Wishart at Bunker,48.409405,-123.499867,0,101508
3798,Kelly at Pickford,48.436791,-123.498586,0,101509
3799,Selwyn at Wentwich,48.45669,-123.488882,0,101510
3800,Latoria at Wishart,48.406474,-123.500983,0,101511
3801,Cordova Bay at Mysty,48.506156,-123.355391,0,101512
3802,Goldstream at Vets Memorial,48.447098,-123.494253,0,101513
3803,Cordova Bay at Timber,48.506828,-123.356117,0,101514
3804,Stornoway at Cairndale,48.420985,-123.501589,0,101515
3805,Veterans Memorial Pkwy at Goldstream,48.446092,-123.496041,0,101516
3806,Duke Rd E at Dutnall,48.393615,-123.4957,0,101517
3807,Selwyn at Wentwich,48.457052,-123.489883,0,101518
3808,Kelly at Pickford,48.437188,-123.499651,0,101519
3809,Veterans Memorial Pkwy at Station,48.445974,-123.496517,0,101520
3810,Veterans Memorial Pkwy at Hoffman,48.450247,-123.49507,0,101521
3811,Duke Rd E at Dutnall,48.39306,-123.496098,0,101522
3812,Cordova Bay at Galey,48.508333,-123.358123,0,101523
3813,Beaver Lake Rd at West Saanich,48.505014,-123.407927,0,101524
3814,Veterans Memorial Pkwy at Percy,48.450421,-123.495458,0,101525
3815,Quayle at Elk,48.502642,-123.418587,0,101526
3816,Veterans Memorial Pkwy at Allandale,48.428039,-123.502348,0,101527
3817,Quayle at Elk,48.502751,-123.418535,0,101528
3818,Cordova Bay at Galey,48.50851,-123.358105,0,101529
3819,Veterans Memorial Pkwy at Sooke Rd.,48.430479,-123.502836,0,101530
3820,Veterans Memorial Pkwy at Cairndale,48.421913,-123.503811,0,101531
3821,Cairndale at Veterans Memorial Pkwy,48.421289,-123.503623,0,101532
3822,Latoria at Pondside,48.406609,-123.50248,0,101533
3823,Langford Exchange,48.44546,-123.505031,0,101534
3824,Veterans Memorial Pkwy at Marlisa,48.452513,-123.495201,0,101535
3825,Beaver Lake Rd at West Saanich,48.505135,-123.408026,0,101536
3826,Duke Rd E at Chapel Heights,48.390966,-123.497013,0,101537
3827,Elk Lake Dr. at Beaver Lake access,48.50953,-123.38449,0,101538
3828,Goldstream at Bryn Maur,48.448097,-123.497409,0,101539
3829,Elk Lake Dr. at Beaver Lake access,48.509249,-123.38474,0,101540
3830,Strandlund at Duncan,48.456838,-123.492815,0,101541
3831,Langford Exchange,48.445535,-123.504678,0,101542
3832,Strandlund at Duncan,48.456629,-123.493473,0,101543
3833,Treanor at Rockcliffe,48.465601,-123.486799,0,101544
3834,Duke Rd E at Chapel Heights,48.390498,-123.497549,0,101545
3835,Goldstream at Claude,48.448925,-123.499008,0,101546
3837,Sooke Rd. at Fulton,48.42992,-123.505577,0,101548
3838,Langford Pkwy at City Centre Park,48.443369,-123.51966,0,101549
3839,Cordova Bay at Sunnygrove,48.510681,-123.361735,0,101550
3840,Duke Rd E 3770 block,48.389159,-123.498309,0,101551
3841,Sooke Rd. at Fulton,48.429701,-123.505448,0,101552
3842,Veterans Memorial Pkwy at Langford Pkwy,48.440952,-123.503029,0,101553
3843,Cordova Bay at Sunnygrove,48.510886,-123.361642,0,101554
3844,Phelps at Heather Ann,48.467301,-123.487038,0,101555
3845,Langford Pkwy at City Centre Park,48.443542,-123.520544,0,101556
3846,Veterans Memorial Pkwy at Kelly,48.439054,-123.504116,0,101557
3847,Goldstream 1170 Block,48.44979,-123.524481,0,101558
3848,Veterans Memorial Pkwy at Peatt,48.455532,-123.496436,0,101559
3849,Peatt at Brock,48.453253,-123.498214,0,101560
3850,Peatt at Arncote,48.45451,-123.497515,0,101561
3851,Veterans Memorial Pkwy at Kelly,48.437466,-123.504795,0,101562
3852,Duke Rd E 3790 block,48.388627,-123.498875,0,101563
3853,Peatt at Goldstream,48.450108,-123.50009,0,101564
3854,Langford Pkwy at Langford Lake Rd,48.443953,-123.526911,0,101565
3855,Peatt at Brock,48.453314,-123.498361,0,101566
3856,Kelly at Veterans Memorial Pkwy,48.438305,-123.505383,0,101567
3857,Peatt at Arncote,48.454577,-123.49765,0,101568
3858,Peatt at Goldstream,48.449854,-123.500464,0,101569
3859,Latoria at Vets Memorial,48.408827,-123.50878,0,101570
3860,Latoria at Bezanton,48.407199,-123.505221,0,101571
3861,Veterans Memorial Pkwy at Peatt,48.454512,-123.496232,0,101572
3862,Langford Exchange,48.445327,-123.505752,0,101573
3863,Goldstream at Peatt,48.44944,-123.50159,0,101574
3864,West Saanich at Beaver,48.508461,-123.410053,0,101575
3865,Fulton at Karger,48.421281,-123.508723,0,101576
3866,Treanor at Cottier,48.465582,-123.491107,0,101577
3867,Sooke Rd. at Cecil Blogg,48.432308,-123.510001,0,101580
3868,Cordova Bay at Maxine,48.513172,-123.364907,0,101581
3869,Cordova Bay at Maxine,48.513144,-123.364571,0,101582
3870,Cuaulta 790 block,48.425537,-123.509763,0,101583
3872,Sooke Rd. at Cecil Blogg,48.431807,-123.509345,0,101585
3873,Phelps at Sabina,48.46682,-123.491572,0,101586
3874,Duke Rd E 3810 block,48.387845,-123.501475,0,101588
3875,Bexhill 730 block,48.423515,-123.51047,0,101589
3876,West Saanich at Old West Saanich,48.509171,-123.411316,0,101590
3877,Duke Rd E 3830 block,48.388343,-123.502644,0,101591
3878,Treanor at Bellamy,48.464922,-123.4937,0,101592
3879,Langford Pkwy at Langford Lake Rd.,48.443744,-123.52695,0,101593
3880,Fulton at Sunheights,48.419841,-123.511215,0,101595
3881,Elk Lake Dr at Hwy 17,48.513365,-123.384589,0,101596
3882,Goldstream at Jacobson,48.450147,-123.504286,0,101597
3885,Cuaulta at Zapata,48.426496,-123.511482,0,101601
3886,Millstream at Sunshine Tce,48.461298,-123.497656,0,101602
3887,Treanor at Selwyn,48.464658,-123.495556,0,101603
3888,Gourman at Bellamy,48.470564,-123.490104,0,101604
3890,Bellamy at Larabie,48.469353,-123.491523,0,101606
3892,Millstream at McCallum,48.459594,-123.497502,0,101608
3893,Bellamy at Phelps,48.466735,-123.49399,0,101609
3894,Duke Rd E at Gilbert,48.388356,-123.504101,0,101610
3895,Sunheights at Claudette,48.420733,-123.512465,0,101611
3896,Latoria at Castlewood,48.409677,-123.511983,0,101612
3897,Latoria at Castlewood,48.409201,-123.51149,0,101613
3898,Hwy 17 at Haliburton,48.515029,-123.384291,0,101616
3899,Goldstream at Jacobson,48.450222,-123.504887,0,101618
3900,Duke Rd E at Gilbert,48.38822,-123.504166,0,101619
3901,Jacklin at Orono,48.447996,-123.507118,0,101620
3902,Jacklin at Lequesne,48.449698,-123.506315,0,101621
3903,Goldie at Bellamy,48.468443,-123.493394,0,101622
3904,Treanor at Hoylake,48.464734,-123.49715,0,101623
3905,Jacklin at Orono,48.447388,-123.507661,0,101624
3906,Jacklin at Station,48.445425,-123.508604,0,101625
3907,Langford Pkwy at Langford Lake Rd.,48.445131,-123.535926,0,101626
3908,West Saanich at Goward,48.510912,-123.414667,0,101627
3909,Kelly at Merchant Way,48.439186,-123.510288,0,101628
3910,Gourman at Brandy,48.470562,-123.492904,0,101629
3911,Jacklin at Rex - Westshore Town Ctr,48.441616,-123.510788,0,101630
3912,Goldstream at Jacklin,48.450855,-123.506376,0,101631
3913,Jacklin at Dunford,48.443968,-123.50975,0,101632
3914,West Saanich at Interurban,48.511679,-123.414575,0,101633
3915,Walfred 900 block,48.427515,-123.51425,0,101634
3916,Jacklin at Jenkins - Westshore T.C.,48.440799,-123.511488,0,101635
3917,Duke Rd W at Cliff,48.391583,-123.508404,0,101636
3918,Millstream at Treanor,48.463813,-123.499216,0,101637
3919,Treanor at Belair,48.464546,-123.498805,0,101638
3920,Goldstream at Matson,48.450888,-123.507543,0,101639
3921,Jacklin at Terlane - Belmont Market,48.438933,-123.512339,0,101640
3922,Wesley at Strangcrest - Claremont School,48.515971,-123.374233,0,101641
3923,Desmond at Wendey,48.41398,-123.514722,0,101642
3924,Sunheights at Batting,48.418936,-123.514863,0,101643
3925,Duke Rd W at Cliff,48.391512,-123.508576,0,101644
3926,Jacklin at Terlane - Belmont Market,48.438686,-123.512726,0,101645
3927,Treanor at Belair,48.464631,-123.499208,0,101646
3928,Latoria at Kelly Dawn,48.41075,-123.5147,0,101647
3929,Sooke Rd. at Jacklin,48.433706,-123.514466,0,101648
3930,Goldstream at Leigh,48.449716,-123.518852,0,101649
34291,Stelly's Cross Rd at Gowdy,48.579811,-123.440727,0,101650
3931,Millstream at Sunshine Tce,48.461396,-123.498101,0,101651
3932,Latoria at Kelly Dawn,48.411059,-123.51523,0,101652
3933,Sunheights at Columbus,48.417271,-123.515676,0,101653
3934,Jacklin at Sunridge Valley,48.435479,-123.514285,0,101654
3935,Jenkins at Avrill,48.440654,-123.512677,0,101655
3936,Dunford at Jacklin,48.4451,-123.511306,0,101656
3937,Walfred 910 block,48.428826,-123.515528,0,101657
3938,Jacklin at Sunridge Valley,48.435475,-123.514508,0,101658
3939,Jenkins at Avrill,48.44061,-123.513063,0,101659
3940,Cordova Bay at Claremont,48.517772,-123.366945,0,101660
3941,Cordova Bay at Haliburton,48.517524,-123.367075,0,101661
3942,Claremont at Cambria Wood,48.517924,-123.376452,0,101663
3943,Metchosin at Duke Rd W,48.392963,-123.510599,0,101664
3944,Latoria at Desmond,48.411312,-123.516709,0,101665
3945,Metchosin at Duke Rd W,48.393032,-123.510818,0,101666
3946,McCallum at Springboard,48.453984,-123.509646,0,101667
3947,Goldstream at Spencer,48.450245,-123.510811,0,101668
3948,Latoria at Desmond,48.411569,-123.517064,0,101669
3949,Florence Lake at Citation,48.455904,-123.50785,0,101670
3950,Millstream at Hoylake,48.465892,-123.501068,0,101671
3951,Sooke Rd. at Jacklin,48.434042,-123.516568,0,101672
3952,Goldstream at Spencer,48.450369,-123.510886,0,101673
3953,Florence Lake at Citation,48.455591,-123.507988,0,101674
3954,Jacklin at Cecil Blogg,48.43061,-123.517431,0,101675
3955,McCallum at Hwy 1 n/b ramp,48.453513,-123.509693,0,101676
34317,Stelly's Cross Rd at Gowdy,48.57964,-123.443524,0,101677
3956,Westshore Pkwy at Westhills Dr,48.44709,-123.539766,0,101678
3957,Goldstream at Carlow,48.449885,-123.512438,0,101679
3958,Cordova Bay at Gloria,48.519506,-123.367247,0,101680
3959,Dunford at Carlow,48.445897,-123.514506,0,101681
3960,Millstream at Goldie,48.467422,-123.501884,0,101682
3961,Sooke Rd. at Ayton,48.433252,-123.518489,0,101683
3962,Jenkins at Hull,48.441446,-123.516476,0,101684
3963,Dunford at Henry Eng Pl,48.44575,-123.514347,0,101685
3964,Carlow at Goldstream,48.449243,-123.513315,0,101686
3965,Carlow at Costin,48.447577,-123.514221,0,101687
3966,Langford Pkwy at Langford Lake Rd,48.444863,-123.535887,0,101688
3967,Jenkins at Hull,48.441344,-123.51685,0,101689
3968,Cordova Bay at Gloria,48.520018,-123.367121,0,101690
3969,Sooke Rd. at Ayton,48.43329,-123.518934,0,101691
3970,Carlow at Linda,48.447223,-123.514769,0,101692
3971,Latoria at Klahanie,48.412927,-123.520282,0,101693
3972,Florence Lake at Rhapsody,48.458212,-123.509954,0,101694
3973,Florence Lake at Rhapsody,48.458018,-123.509993,0,101695
3974,Latoria at Klahanie,48.413213,-123.521256,0,101696
3975,Setchfield at Buckler,48.462189,-123.5078,0,101697
3976,Setchfield at High Forest,48.463261,-123.507034,0,101698
3977,Treanor at Camli,48.465899,-123.505181,0,101699
3978,Treanor at Camli,48.466248,-123.505437,0,101700
3979,Setchfield at Martin,48.460749,-123.509658,0,101701
3980,Millstream at All Fun Rec/Western Spdwy,48.470768,-123.503977,0,101702
3981,Millstream at All Fun Rec/Western Spdwy,48.470184,-123.503194,0,101703
3982,Sooke Rd. at Willshire,48.432734,-123.52181,0,101704
3983,Setchfield 2360 block,48.465583,-123.507538,0,101705
3984,Florence Lake at Setchfield,48.459761,-123.511285,0,101706
3985,Sooke Rd. at Willshire,48.432616,-123.521674,0,101707
3986,Langford Pkwy at Hull's Corner,48.443012,-123.514584,0,101708
3987,Florence Lake at Setchfield,48.459369,-123.511353,0,101709
3988,Jenkins at Haslam,48.441664,-123.519892,0,101710
3990,Goldstream at Leigh,48.449574,-123.517469,0,101712
3991,Jenkins at Haslam,48.441883,-123.520623,0,101713
3992,Treanor at Misty,48.467053,-123.507031,0,101714
3993,Cordova Bay at Doumac,48.522717,-123.367591,0,101715
3994,Latoria 850 block,48.414687,-123.52463,0,101716
3995,Setchfield at Treanor,48.466503,-123.50827,0,101717
3996,Cordova Bay at Doumac,48.523113,-123.367527,0,101718
3997,Latoria 860 block,48.414583,-123.524708,0,101719
3998,Setchfield at Treanor,48.466606,-123.508513,0,101720
3999,Bear Mountain Pkwy at Longspur,48.470232,-123.508065,0,101721
4000,Bear Mountain Pkwy at Longspur,48.470353,-123.508532,0,101722
4001,Sooke Rd. at Happy Valley,48.432939,-123.523911,0,101723
4002,Sooke Rd. at Happy Valley,48.4328,-123.524023,0,101724
4003,West Saanich at Observatory,48.517775,-123.421817,0,101725
4004,Jenkins at Glen Lake,48.44182,-123.522758,0,101726
4005,Jenkins at Glen Lake,48.441911,-123.52302,0,101727
4006,Metchosin at Lomax,48.391728,-123.520751,0,101728
4007,Glen Lake at Page,48.434203,-123.525545,0,101729
4008,Goldstream 1170 Block,48.449592,-123.52417,0,101730
4009,Glen Lake at Paddle,48.434308,-123.525668,0,101731
4010,Westshore Pkwy at Westhills Dr,48.448157,-123.539836,0,101732
4011,Glen Lake at Colbourne,48.436093,-123.525771,0,101733
4012,Metchosin at Lomax,48.391824,-123.521231,0,101734
4013,Westshore Pkwy at Landing Lane,48.451662,-123.541604,0,101735
4014,Glen Lake at Colbourne,48.436024,-123.525918,0,101736
4015,Cordova Bay at Sutcliffe,48.525246,-123.368483,0,101737
4016,Bear Mountain Pkwy at Echo Valley,48.468988,-123.512249,0,101738
4017,Glen Lake at Waterlily,48.438548,-123.527605,0,101739
4018,Cordova Bay at Walema,48.526423,-123.368318,0,101740
4019,Bear Mountain Pkwy at Echo Valley,48.469114,-123.512163,0,101741
4020,Glen Lake at Waterlily,48.438483,-123.527788,0,101742
4021,Glen Lake at Springhill,48.442704,-123.526736,0,101743
4022,Sooke Rd. at Ronald,48.432385,-123.529689,0,101744
4023,Glen Lake at Springhill,48.442612,-123.526287,0,101745
4024,Happy Valley at Acadian,48.427638,-123.530083,0,101746
4025,Goldstream at Hartsdale,48.449183,-123.520956,0,101747
4026,Happy Valley at Huckleberry,48.427494,-123.53037,0,101748
4027,Sooke Rd. at Ronald,48.432626,-123.529457,0,101749
4028,Langford Pkwy at Hull's Corner,48.442845,-123.514621,0,101750
4029,Metchosin at Pears,48.389744,-123.525569,0,101751
4030,Glen Lake at Glenview,48.441379,-123.528761,0,101752
4032,Glen Lake at Kathlynn,48.439727,-123.529082,0,101754
4033,Glen Lake at Kathlynn,48.439707,-123.529331,0,101755
4034,Glen Lake at Glenview,48.441025,-123.529597,0,101756
4036,Metchosin at Pears,48.389479,-123.526072,0,101758
4037,Latoria at Happy Valley,48.416141,-123.532831,0,101759
4038,Happy Valley at Turnstone,48.423075,-123.532762,0,101760
4039,Happy Valley at Luxton,48.41959,-123.532917,0,101761
4040,Happy Valley at Latoria,48.416505,-123.533014,0,101762
4041,Bear Mountain Pkwy at Stone Gate,48.472621,-123.512848,0,101763
4042,Happy Valley at Turnstone,48.422612,-123.533064,0,101764
4043,Happy Valley at Dicker,48.41351,-123.53301,0,101765
4044,Happy Valley at Luxton,48.418627,-123.53311,0,101766
4045,Cordova Bay at Lochside,48.528769,-123.372734,0,101767
4046,Happy Valley at Latoria,48.416318,-123.533248,0,101768
4047,Happy Valley at Dicker,48.413707,-123.53319,0,101769
4048,Westshore Pkwy at Landing Lane,48.451709,-123.541285,0,101770
4049,Admirals at Maple Bank,48.441733,-123.427902,0,101771
4051,Sooke Rd. at Penwood,48.431116,-123.533621,0,101773
4052,Sooke Rd. at Penwood,48.43078,-123.534192,0,101774
4053,Happy Valley at Vitality,48.412671,-123.534565,0,101775
4054,Happy Valley at Vitality,48.412489,-123.534645,0,101776
4055,Cordova Bay at Sayward Hill,48.530401,-123.374313,0,101777
4056,Admirals at Maple Bank,48.441846,-123.427763,0,101778
4057,Mills at West Saanich,48.655311,-123.444894,0,101779
4058,Metchosin at Witty Beach,48.384341,-123.526991,0,101780
4059,Goldstream at Wenger,48.452021,-123.528727,0,101781
4060,Metchosin at Witty Beach,48.384055,-123.526956,0,101782
4061,West Saanich at Prospect Lake,48.523721,-123.43061,0,101783
4062,Cordova Bay at Hill Rise,48.530675,-123.382234,0,101784
4063,Cordova Bay at Alderley,48.530741,-123.38403,0,101785
4064,West Saanich at Prospect Lake,48.523874,-123.430636,0,101786
4065,Goldstream at Lakeshore,48.453295,-123.530538,0,101787
4066,Cordova Bay at Fowler,48.5322,-123.376766,0,101788
4067,Bear Mountain Pkwy at Players Dr,48.474316,-123.517945,0,101789
4068,Bear Mountain Pkwy at Players Dr,48.474451,-123.517746,0,101790
4069,Metchosin at Wootton,48.382051,-123.528961,0,101791
4070,Happy Valley at Lomalinda,48.410984,-123.538028,0,101792
4071,Happy Valley at Lomalinda,48.411225,-123.537874,0,101793
4072,Metchosin at Wootton,48.382176,-123.52908,0,101794
4073,Fowler at Cordova Bay,48.533286,-123.378215,0,101796
4074,Happy Valley at Wild Ridge,48.409835,-123.539667,0,101797
4075,Happy Valley at Wild Ridge,48.40965,-123.539993,0,101798
4076,Metchosin at Happy Valley,48.380288,-123.530672,0,101799
4077,Happy Valley at Centremont,48.407555,-123.541539,0,101800
4078,Sooke Rd. at Chidlow,48.429443,-123.538088,0,101801
4079,Happy Valley at Winter,48.407949,-123.541458,0,101802
4080,Fowler at Menawood,48.53513,-123.379136,0,101803
4081,Bear Mountain Pkwy at Nicklaus Dr,48.475082,-123.522157,0,101804
4082,William Head at Happy Valley,48.379265,-123.531736,0,101805
4083,Sooke Rd. at Glenshire,48.429204,-123.542741,0,101806
4084,Bear Mountain Pkwy at Nicklaus Dr,48.4753,-123.523397,0,101807
4085,West Saanich at Hartland,48.527395,-123.436497,0,101808
4086,Goldstream Ave at Ed Nixon Trailhead,48.455134,-123.534114,0,101809
4087,West Saanich at Hartland,48.527586,-123.436484,0,101810
4089,William Head at Parry,48.377022,-123.532794,0,101812
4090,Mills at Littlewood,48.655323,-123.432043,0,101813
4091,Mills at Avenger Way,48.655275,-123.424981,0,101814
4092,Sooke Rd. at Awsworth,48.42582,-123.563117,0,101815
4093,Happy Valley at Rocky Point,48.382458,-123.538379,0,101816
20226,Carey at Ravine - Uptown,48.456104,-123.377444,0,101817
4095,Happy Valley at Rocky Point,48.382477,-123.538653,0,101819
4096,Westshore Pkwy at Amy,48.456716,-123.538987,0,101820
4097,Fowler at Sayward,48.538301,-123.38111,0,101821
4098,Sooke Rd. at Awsworth,48.426036,-123.563724,0,101822
4099,Hwy 17 at Sayward,48.536718,-123.388917,0,101823
4100,Metchosin Rd at Raynerwood Pl,48.423063,-123.487888,0,101824
4101,Sayward at Fowler,48.538649,-123.383355,0,101825
4102,William Head 4550 block,48.375055,-123.533928,0,101826
11139,Sooke Rd at Westshore Pkwy,48.425215,-123.549555,0,101827
4103,Hwy 17 at Sayward,48.538221,-123.389558,0,101828
4104,Happy Valley at Neild,48.404825,-123.547498,0,101829
4105,Happy Valley at Neild,48.404776,-123.547851,0,101830
4106,Happy Valley 4370 block,48.384447,-123.541635,0,101831
4107,Happy Valley 4360 block,48.385138,-123.542259,0,101832
4108,Amy at Westshore Pkwy,48.457883,-123.541047,0,101833
4109,Bear Mountain Pkwy at Country Club Way,48.475927,-123.530712,0,101834
4110,Happy Valley 4340 block,48.386408,-123.544478,0,101835
4111,Happy Valley 4350 block,48.386459,-123.544237,0,101836
4112,Happy Valley at Flesh,48.402091,-123.550221,0,101837
4113,Rocky Point 4540 block,48.377306,-123.541865,0,101838
4114,Happy Valley at Flesh,48.401975,-123.550484,0,101839
4115,West Saanich at Matterhorn,48.532291,-123.438554,0,101840
4116,Happy Valley at Bennett,48.388784,-123.547584,0,101841
4117,Happy Valley at Glen Forest,48.399337,-123.550826,0,101842
4118,Happy Valley at Bennett,48.388646,-123.547674,0,101843
4119,West Saanich at Matterhorn,48.533865,-123.437665,0,101844
4120,Happy Valley at Glen Forest,48.399302,-123.551022,0,101845
4121,Phipps at Kelly - Westshore Town Ctr,48.44056,-123.505629,0,101846
4122,Rocky Point 4540 block,48.377461,-123.541506,0,101847
4123,Happy Valley at Brookview,48.397345,-123.551141,0,101848
4124,Happy Valley at Brookview,48.397353,-123.551329,0,101849
4125,Amy at Sooke Lake Rd,48.458641,-123.545601,0,101850
4126,Happy Valley at Lindholm,48.393208,-123.551197,0,101851
4127,Phipps at Kelly - Westshore Town Ctr,48.44061,-123.505818,0,101852
4128,Happy Valley at Lindholm,48.392906,-123.550966,0,101853
4129,Amy at Sooke Lake Rd,48.458866,-123.545756,0,101854
4130,Taylor at William Head,48.369213,-123.539522,0,101855
4131,West Saanich at Wallace,48.535154,-123.437506,0,101856
4132,West Saanich at Wallace,48.535538,-123.437182,0,101857
4134,Rocky Point at Walpole,48.374361,-123.544343,0,101859
11172,Sooke Rd at Westshore Pkwy,48.425108,-123.548787,0,101860
4135,Island View at Hwy 17,48.57232,-123.398849,0,101861
4136,Rocky Point at Walpole,48.374062,-123.544414,0,101862
4137,Mt Wells at Sunvale,48.458582,-123.549132,0,101863
4138,Sooke Lake Rd at Amy,48.460055,-123.549371,0,101864
4139,Sooke Lake Rd at Amy,48.459956,-123.549105,0,101865
4140,Mt Wells at Bolanne,48.457096,-123.551274,0,101866
4141,Sooke Lake Rd at Corrine,48.459806,-123.550737,0,101867
4142,Rocky Point at Taylor,48.371779,-123.547291,0,101868
4144,Rocky Point at Tiswilde,48.371668,-123.547752,0,101870
4145,William Head at Lombard,48.36518,-123.543663,0,101871
4146,Humpback at Rock Hill,48.458859,-123.553377,0,101872
4147,West Saanich 5750 block,48.541383,-123.436804,0,101873
4148,Lombard at Tavane,48.366597,-123.548567,0,101874
4149,Rocky Point at Arden,48.368944,-123.550363,0,101875
4150,Rocky Point at Arden,48.369014,-123.550517,0,101876
4151,Lombard at Tavane,48.366579,-123.548922,0,101877
4152,West Saanich 5780 block,48.543193,-123.436708,0,101878
4153,William Head at Boblaw,48.358227,-123.545209,0,101879
4154,William Head at Boblaw,48.358531,-123.545285,0,101880
4155,Sooke Rd at Humpback,48.426224,-123.569148,0,101881
4156,Tanner at Marie Meadows,48.554355,-123.395026,0,101883
4157,Tanner at Marie Meadows,48.554219,-123.395008,0,101885
4158,Tanner at Conconi,48.554344,-123.398271,0,101886
4159,William Head at Sandgate,48.353553,-123.547332,0,101887
4160,Tanner at Rodolph,48.554253,-123.400433,0,101888
4161,Tanner at Conconi,48.554225,-123.398228,0,101889
4162,Tanner at Rodolph,48.554402,-123.40117,0,101890
4163,West Saanich at Glen Nevis,48.54772,-123.441083,0,101891
4164,West Saanich at Glen Nevis,48.547518,-123.44142,0,101892
4165,West Saanich at Durrance,48.550609,-123.439901,0,101893
4166,Central Saanich Rd at Tanner,48.557134,-123.403432,0,101894
4167,Central Saanich Rd at Tanner,48.55711,-123.403635,0,101895
4168,West Saanich at Durrance,48.551218,-123.440076,0,101896
4169,Central Saanich Rd at Styan,48.559804,-123.403459,0,101897
4170,West Saanich 6090 block,48.554236,-123.438658,0,101899
4171,West Saanich 6340 block,48.554589,-123.438651,0,101900
4172,Central Saanich Rd at Styan,48.560434,-123.403667,0,101901
4173,Sooke Rd 4020 block,48.407489,-123.584208,0,101902
4174,Sooke Rd 4130 block,48.399259,-123.589446,0,101903
4175,Central Saanich Rd at Handy,48.562316,-123.403459,0,101904
4176,Sooke Rd 4140 block,48.399109,-123.590311,0,101905
4177,Central Saanich Rd at Keating Cross Rd,48.564535,-123.403656,0,101906
4178,Central Saanich Rd at Keating Cross Rd,48.564839,-123.403454,0,101907
4179,Keating Cross Rd at Mirah,48.565071,-123.406231,0,101908
4180,Keating Cross Rd at Mirah,48.565212,-123.407263,0,101909
4181,Keating Cross Rd at Veyaness,48.565065,-123.410068,0,101911
4182,West Saanich at Old West Saanich,48.560931,-123.436667,0,101912
4183,West Saanich at Old West Saanich,48.560897,-123.436471,0,101914
4184,Keating Cross Rd at Veyaness,48.565216,-123.410263,0,101915
4185,Sooke Rd 4000 block,48.409573,-123.585279,0,101916
4186,Keating Cross Rd at Rajpur,48.56507,-123.41313,0,101917
4187,Keating Cross Rd at Rajpur,48.565205,-123.414381,0,101919
4188,Keating Cross Rd at Kirkpatrick,48.565061,-123.419304,0,101920
4189,Keating Cross Rd at Oldfield,48.565216,-123.418377,0,101921
4190,Sooke Rd at Gillespie - 17 Mile,48.394086,-123.627406,0,101923
4191,Keating Cross Rd at Bryn,48.565713,-123.42649,0,101924
4192,Keating Cross Rd at Bryn,48.56558,-123.427515,0,101925
4193,West Saanich at Keating Cross Rd,48.564576,-123.43813,0,101928
4194,Keating Cross Rd at West Saanich,48.565123,-123.437382,0,101929
4195,Keating Cross Rd at West Saanich,48.565273,-123.437712,0,101930
4196,West Saanich at Keating Cross Rd,48.56585,-123.439058,0,101931
4197,West Saanich at Kersey,48.566773,-123.440087,0,101932
4198,Benvenuto at Garden Gate,48.563787,-123.453527,0,101933
4199,Benvenuto at Trudeau,48.562992,-123.456136,0,101934
4200,Benvenuto at Trudeau,48.562857,-123.456144,0,101935
4201,Benvenuto at Garden Gate,48.563843,-123.453728,0,101936
4202,Sooke Rd at Kangaroo,48.392942,-123.597979,0,101937
4203,Sooke Rd at Kangaroo,48.393487,-123.596912,0,101938
4204,Benvenuto at Knott,48.566159,-123.447089,0,101939
4205,Wallace at Benvenuto,48.563336,-123.45917,0,101940
4206,Wallace at Benvenuto,48.563304,-123.458824,0,101941
4207,East Saanich at Cooperidge,48.573275,-123.403766,0,101942
4208,Benvenuto at Knott,48.566311,-123.447453,0,101943
4209,East Saanich at Cooperidge,48.573936,-123.40409,0,101944
4210,Wallace at Woodward,48.564338,-123.460256,0,101945
4211,Wallace at Woodward,48.564416,-123.460087,0,101946
4212,West Saanich at Carriage Ln,48.569076,-123.441512,0,101947
4213,West Saanich at Carriage Ln,48.56928,-123.441331,0,101948
4214,Arbutus at Finnerty,48.470829,-123.303228,0,101949
4215,Butchart Gardens,48.563102,-123.466572,0,101950
4216,Arbutus at Finnerty,48.47089,-123.303064,0,101951
4217,Wallace 6760 block,48.565865,-123.461295,0,101952
4218,Wallace 6770 block,48.566319,-123.461365,0,101953
4219,East Saanich at Dogwood,48.577008,-123.40666,0,101954
4220,East Saanich at Stelly's Cross Rd,48.579594,-123.408771,0,101955
4221,Sooke Rd at Impala,48.393841,-123.605631,0,101956
4222,Sooke Rd at Impala,48.394322,-123.605993,0,101957
4223,Wallace at Springside,48.569585,-123.455646,0,101958
4224,West Saanich at Marchant,48.572732,-123.442692,0,101959
4225,Wallace at McKenna,48.568765,-123.459378,0,101960
4226,West Saanich at Marchant,48.572902,-123.4426,0,101961
4227,Wallace at Springside,48.569821,-123.455547,0,101962
4228,Wallace at McKenna,48.568865,-123.459424,0,101963
4229,Wallace at Llanfair,48.570698,-123.454023,0,101964
4230,Sooke Rd 4880 block,48.39651,-123.609307,0,101965
4231,Wallace at Marin Park,48.571795,-123.45271,0,101966
4232,Sooke Rd 4880 block,48.396867,-123.609468,0,101967
4233,East Saanich at Stelly's Cross Rd,48.579922,-123.409207,0,101968
4234,Wallace 7200 block - Stelly's Sec Sch,48.576094,-123.433334,0,101969
4235,Wallace at Marchant,48.572723,-123.451064,0,101971
4236,East Saanich at Dogwood,48.57695,-123.406838,0,101972
4237,West Saanich at Columbia,48.574728,-123.444359,0,101973
4238,West Saanich at Wallace,48.57484,-123.444807,0,101974
4239,Wallace at Sluggett,48.573904,-123.449065,0,101975
37567,Wilkinson 3930 block,48.470592,-123.412593,0,101976
4240,Marchant at Hagan,48.57237,-123.457712,0,101977
52645,Burnside at Heritage,48.463445,-123.412655,0,101978
4241,Sooke Rd 4960 block,48.397942,-123.614379,0,101980
52647,Langford Pkwy at Lakepoint Way,48.445205,-123.534013,0,101981
4242,West Saanich at Clarke,48.575983,-123.446625,0,101982
4243,Brentwood Dr at Marchant,48.572532,-123.461052,0,101983
4244,Wallace at Stelly's Cross Rd,48.580118,-123.425682,0,101984
4245,West Saanich at Wallace,48.576243,-123.446543,0,101985
4246,Wallace at Stelly's Cross Rd,48.579873,-123.425996,0,101986
4247,Sooke Rd 4960 block,48.39808,-123.614855,0,101987
4248,Stelly's Cross Rd at Stelly's Sec School,48.579664,-123.431969,0,101988
4249,Stelly's Cross Rd at Stelly's Sec School,48.57979,-123.432762,0,101989
4250,Wallace at White,48.584441,-123.4238,0,101990
4251,Brentwood Dr at Sluggett,48.573677,-123.462191,0,101991
4252,Stelly's Cross Rd at Saanich Fairgrounds,48.579658,-123.436883,0,101992
4253,Canora at Dehavilland,48.64275,-123.416695,0,101993
4254,Stelly's Cross Rd at Saanich Fairgrounds,48.579795,-123.436104,0,101994
4255,East Saanich 7360 block,48.582454,-123.411825,0,101996
4256,Canora at de Havilland,48.642802,-123.416669,0,101997
4257,Verdier at West Saanich,48.577965,-123.450417,0,101998
4258,West Saanich at Verdier,48.578801,-123.450405,0,101999
4259,Happy Valley at Walfred,48.431304,-123.527571,0,102001
4260,Stelly's Cross Rd at Early,48.579639,-123.445677,0,102002
4261,Verdier at Holly Park,48.577936,-123.455635,0,102003
4262,Stelly's Cross Rd at Early,48.579774,-123.445729,0,102004
4264,Happy Valley at Walfred,48.430816,-123.527969,0,102006
4265,Butchart Gardens,48.563081,-123.466557,0,102007
55091,West Saanich 4392 block,48.489384,-123.386275,0,102008
4266,Wallace at White,48.584478,-123.423569,0,102009
4267,Stelly's Cross at West Saanich,48.579677,-123.450765,0,102010
4268,East Saanich at Veyaness,48.585497,-123.416567,0,102011
4269,Hillside at Douglas,48.438496,-123.365523,0,102012
4270,West Saanich at Verdier,48.578348,-123.450169,0,102013
4271,Verdier at Hagan,48.577953,-123.458286,0,102014
4272,East Saanich 7370 block,48.582671,-123.411851,0,102015
4273,Brentwood Dr at Verdier,48.576656,-123.464756,0,102016
57474,Benvenuto at Tod Inlet,48.562489,-123.464226,0,102017
4274,McTavish Exch - airport connections,48.630165,-123.413086,0,102018
76280,Bay at Empire (for Cook St),48.434857,-123.350871,0,102019
4275,McTavish Exchange,48.630166,-123.413286,0,102020
4276,East Saanich at Veyaness,48.585678,-123.417486,0,102021
4277,Verdier at Keally,48.577957,-123.46307,0,102022
4278,Wallace at Hovey,48.586614,-123.422538,0,102023
4279,Wallace at Hovey,48.586527,-123.422791,0,102024
4280,East Saanich at Hovey,48.587901,-123.419077,0,102025
4281,Wallace at Prosser,48.588528,-123.421743,0,102026
76289,Bay at Prior (for Cook St),48.435196,-123.353817,0,102028
4284,East Saanich at Prosser,48.588293,-123.41938,0,102030
4285,McTavish Exchange,48.630332,-123.413204,0,102032
4286,Wallace at Cultra,48.592023,-123.421812,0,102033
78647,Trans-Canada Hwy at McKenzie / Admirals,48.459493,-123.406634,0,102034
4287,West Saanich at Shaker Church Rd,48.583817,-123.457704,0,102035
4288,Mt Newton Cross Rd at Stautw,48.59298,-123.391734,0,102036
4289,West Saanich at Shaker Church Rd,48.584279,-123.458072,0,102037
4290,McTavish Exchange,48.63033,-123.412974,0,102038
4291,Mt Newton Cross Rd at Hermwood,48.594107,-123.396292,0,102040
4293,Mt Newton Cross Rd at Hwy 17,48.594075,-123.399955,0,102042
4294,Mt Newton Cross Rd at Hermwood,48.594237,-123.396891,0,102043
4295,McTavish Exchange,48.630051,-123.412454,0,102044
4296,Mt Newton Cross Rd at Hwy 17,48.594208,-123.399402,0,102045
4297,Mt Newton Cross Rd at Central Saanich Rd,48.594065,-123.40293,0,102046
4298,Wallace at Prosser,48.589114,-123.421867,0,102047
4299,McTavish Exch - airport connections,48.629052,-123.411623,0,102048
4300,Mt Newton Cross Rd at Central Saanich Rd,48.594198,-123.404019,0,102049
4301,Mt Newton Cross Rd at Saanich Pen Hosp,48.594065,-123.409485,0,102050
4302,Lochside at Mt Newton Cross Rd,48.594543,-123.394759,0,102051
4303,Wallace at Cultra,48.592713,-123.421369,0,102052
4305,Saanichton Exchange,48.593586,-123.416868,0,102054
4306,Mt Newton Cross Rd at Saanich Pen Hosp,48.594193,-123.410441,0,102055
4307,Gillespie 1890 block,48.391647,-123.631536,0,102056
4308,Saanichton Exchange Bay B,48.593679,-123.417057,0,102057
4309,Lochside at Ferguson,48.595622,-123.394572,0,102058
4310,Gillespie 1890 block,48.391567,-123.631699,0,102059
4312,Gillespie 1590 block,48.384037,-123.629757,0,102061
4314,Gillespie 1610 block,48.384469,-123.630213,0,102063
4315,Driftwood 2430 block,48.396152,-123.722085,0,102064
4316,Wallace at Mt Newton Cross Rd,48.594442,-123.419646,0,102065
4317,Wallace at Lisnoe,48.594024,-123.420553,0,102066
4318,Saanich Peninsula Hospital,48.596027,-123.410329,0,102067
78680,Sooke Rd. at Carran,48.432258,-123.497047,0,102068
4319,Sooke Rd at Glinz Lake Rd,48.393327,-123.636413,0,102069
4320,Lochside at James Island,48.598742,-123.394782,0,102070
4321,East Saanich at Patterson,48.596596,-123.416773,0,102071
4322,East Saanich at Wallace,48.596759,-123.416973,0,102072
4324,Lochside at James Island,48.599202,-123.39462,0,102074
4325,Lochside at Wakeman,48.600388,-123.395731,0,102075
4326,Gillespie at Roche Cove Bridge,48.37239,-123.632694,0,102076
4327,Lochside at Wakeman,48.600634,-123.395729,0,102077
4328,Gillespie at Roche Cove Bridge,48.370533,-123.633218,0,102078
4329,East Saanich at Polo Park,48.599495,-123.416922,0,102079
4330,East Saanich at Polo Park,48.600192,-123.41671,0,102080
4331,Sooke Rd 5260 block,48.388611,-123.643742,0,102081
4332,Lochside at Newman,48.603827,-123.396202,0,102082
4333,Sooke Rd 5320 block,48.387645,-123.647808,0,102083
4334,Lochside at Newman,48.604068,-123.395988,0,102084
4335,Sooke Rd 5330 block,48.388321,-123.648457,0,102085
4336,East Saanich at Newman,48.602609,-123.417121,0,102086
4337,East Saanich at Newman,48.602501,-123.417304,0,102087
4338,Gillespie at Mt Matheson,48.358696,-123.633791,0,102088
4339,Lochside at Cascade,48.606417,-123.396523,0,102089
4340,Gillespie at Mt Matheson,48.358032,-123.635803,0,102090
4341,Lochside at Cascade,48.606616,-123.396439,0,102091
4342,Sooke Rd 5370 block,48.390562,-123.651318,0,102092
4343,Sooke Rd 5380 block,48.390811,-123.65116,0,102093
4344,East Saanich at Haldon,48.606596,-123.419117,0,102094
4345,Sunriver at Riverstone,48.397055,-123.721192,0,102095
4346,East Saanich at Haldon,48.606795,-123.419088,0,102096
4347,Sooke Rd 5460 block,48.394836,-123.655139,0,102097
4348,West Saanich at Mt Newton Cross Rd,48.599042,-123.465892,0,102098
4349,West Saanich at Mt Newton Cross Rd,48.599552,-123.466028,0,102099
4350,Lochside  8380 block,48.610092,-123.399266,0,102100
4351,Lochside 8390 block,48.610395,-123.399305,0,102101
4352,Sooke Rd at Ludlow,48.394195,-123.657973,0,102102
4353,Sooke Rd 5460 block,48.394675,-123.655607,0,102103
4354,E Sooke Rd at Gillespie,48.354454,-123.642476,0,102104
4355,Sooke Rd at Laidlaw,48.393428,-123.660487,0,102105
4356,Sooke Rd at Ludlow,48.394043,-123.658014,0,102106
4357,E Sooke Rd at Gillespie,48.354362,-123.642634,0,102107
4358,Lochside at Wardle,48.614346,-123.401289,0,102108
4359,Sooke Rd at Laidlaw,48.393001,-123.66088,0,102109
4360,Lochside at Wardle,48.614266,-123.401436,0,102110
118763,May at Eberts,48.411002,-123.345737,0,102111
4361,East Saanich at Barrett,48.613484,-123.416151,0,102112
4362,East Saanich at Barrett,48.613669,-123.415921,0,102113
4363,Barrett at Trincomali,48.612753,-123.424884,0,102114
4364,Barrett at Trincomali,48.613033,-123.423723,0,102115
4365,E Sooke Rd at Boardman,48.358008,-123.646544,0,102116
4366,E Sooke Rd at Boardman,48.358625,-123.648601,0,102117
4367,West Saanich at McPhail,48.604467,-123.471842,0,102118
4369,Barrett at Sandover,48.614186,-123.418571,0,102120
4370,West Saanich at McPhail,48.605256,-123.472387,0,102121
4371,Barrett at Colburne,48.614159,-123.428992,0,102122
4372,Barrett at Sandover,48.615009,-123.421668,0,102124
4373,Barrett at Colburne,48.613942,-123.428878,0,102125
4374,Barrett at Sandover,48.614791,-123.421736,0,102126
4375,Sooke Rd at Harbourview,48.391041,-123.666656,0,102127
4376,Barrett at Kingcome,48.614243,-123.431534,0,102128
4377,Barrett at Kingcome,48.614524,-123.431386,0,102129
4378,Lochside at Lowe,48.618276,-123.404538,0,102130
4379,Sooke at Harbourview,48.391191,-123.667853,0,102131
4380,Latoria at Dunlin,48.408379,-123.487997,0,102132
4381,E Sooke at Parkheights,48.358261,-123.655877,0,102133
4382,E Sooke Rd at Parkheights,48.358386,-123.655966,0,102134
4383,East Saanich at Dean Park Rd,48.61796,-123.416655,0,102135
4384,East Saanich at Lowe,48.618346,-123.416453,0,102136
4385,Lochside at Lowe,48.61839,-123.404428,0,102137
4386,Barrett at Dean Park Rd,48.617095,-123.432331,0,102138
4387,Barrett at Dean Park Rd,48.617196,-123.432173,0,102139
4388,West Saanich at Lawrence,48.609714,-123.474136,0,102140
4389,Forest Park Dr at Dean Park Rd,48.617966,-123.428879,0,102141
4390,Forest Park Dr at Dean Park Rd,48.617901,-123.429068,0,102142
4391,East Saanich 8800 block,48.620941,-123.417657,0,102143
4392,East Saanich 8800 block,48.620746,-123.417386,0,102144
4393,E Sooke Rd 5900 block,48.359909,-123.660873,0,102145
4394,E Sooke Rd 5890 block,48.359642,-123.660724,0,102146
4395,Sooke Rd at Saseenos,48.391078,-123.670603,0,102147
4396,West Saanich at Lawrence,48.610869,-123.473828,0,102148
4397,Forest Park Dr at Mayneview,48.619982,-123.425928,0,102149
4398,Sooke Rd at Saseenos,48.39085,-123.671958,0,102150
4399,Forest Park Dr at Mayneview,48.619874,-123.426996,0,102151
4400,Lochside 8890 block,48.62359,-123.407998,0,102152
4401,Lochside 8880 block,48.623557,-123.408165,0,102153
4402,Sooke Rd at Woodlands,48.390747,-123.676787,0,102154
4403,Forest Park Dr 8870 block,48.623265,-123.427328,0,102155
4404,Forest Park Dr 8880 block,48.623706,-123.427403,0,102156
4406,East Saanich at Bazan Bay,48.624778,-123.418814,0,102158
4407,Forest Park Dr at E Saanich,48.625119,-123.420457,0,102159
4408,East Saanich at Forest Park Dr,48.625659,-123.419229,0,102160
4410,Forest Park Dr at Haro Park,48.625269,-123.421727,0,102162
4411,Forest Park Dr at Cresswell,48.625718,-123.426987,0,102163
4412,West Saanich 8740 block,48.619902,-123.466153,0,102164
4413,West Saanich at Theh Le Lum,48.620579,-123.465272,0,102165
4414,E Sooke Rd at Raglan,48.36413,-123.673816,0,102166
4415,E Sooke Rd at Raglan,48.364451,-123.67433,0,102167
4416,Sooke Rd 5940 block,48.38906,-123.682764,0,102168
4417,West Saanich at Theh Le Lum,48.621594,-123.464575,0,102169
4418,Sooke Rd 5920 block,48.389998,-123.678724,0,102170
78780,Haliburton at Wesley,48.514289,-123.375187,0,102171
78781,Haliburton at Del Monte,48.514145,-123.37868,0,102172
78782,Haliburton at Del Monte,48.514324,-123.378969,0,102173
78783,McKenzie at Burnside Rd W,48.462595,-123.401917,0,102174
78784,McKenzie at Burnside Rd W,48.462606,-123.401482,0,102175
4419,East Saanich at McTavish,48.629512,-123.420458,0,102176
4420,East Saanich at McTavish,48.629618,-123.420254,0,102177
78787,McKenzie at Hwy 1 n/b ramp,48.460501,-123.403708,0,102179
85876,West Saanich at Observatory,48.517709,-123.422014,0,102180
88237,Interurban at Viaduct Ave W,48.498384,-123.419436,0,102181
4421,Kaltasin at Seabroom,48.382248,-123.690003,0,102182
4422,Sooke Rd at Kaltasin,48.387366,-123.688727,0,102183
4423,Sooke Rd at Kaltasin,48.387237,-123.688492,0,102184
88241,James White Blvd at Resthaven,48.65015,-123.401864,0,102185
4424,Andover at Copper Mine,48.362993,-123.678562,0,102186
95288,Wharf at Broughton,48.423893,-123.369468,0,102187
4425,Lochside at Bakerview,48.632776,-123.408984,0,102188
4426,Kaltasin at Sooke Rd,48.386542,-123.687913,0,102189
4427,Lochside at Bakerview,48.632818,-123.409121,0,102190
4428,West Saanich at North Ridge,48.627076,-123.458115,0,102191
104672,Six Mile Rd. at Chilco,48.45908,-123.465263,0,102192
104673,Six Mile Rd. at Chilco,48.459558,-123.465344,0,102193
4429,West Saanich at North Ridge,48.627681,-123.457902,0,102194
4430,Copper Mine at Andover,48.363761,-123.678884,0,102195
4431,Kaltasin at Seabroom,48.383708,-123.689233,0,102196
4432,Idlemore at Glenidle,48.384031,-123.691688,0,102197
4434,Willingdon at East Saanich,48.635172,-123.421331,0,102199
4435,Lochside at Captains Walk,48.636359,-123.405167,0,102200
4436,West Saanich at McTavish,48.630154,-123.458203,0,102201
4437,Willingdon at East Saanich,48.63529,-123.421444,0,102202
4438,Glenidle at Idlemore,48.381587,-123.692128,0,102203
4439,Canora at Summergate,48.636279,-123.417316,0,102204
4440,Lochside at Frost,48.637804,-123.403793,0,102205
4441,West Saanich at McTavish,48.631694,-123.458089,0,102206
4442,Lochside at Frost,48.638126,-123.403241,0,102207
4443,Canora at Summergate,48.636833,-123.41775,0,102208
4444,Llanilar 6230 block,48.365533,-123.690327,0,102209
4445,Llanilar at Hensbro,48.363188,-123.6896,0,102210
4446,Legislature Terminal,48.418647,-123.368962,0,102211
4447,Sooke Rd at Lazzar (Sooke Park & Ride),48.387729,-123.697598,0,102212
109405,Sooke Rd at Shields,48.375752,-123.725073,0,102213
4448,Sooke Rd at Lazzar (Sooke Park & Ride),48.387895,-123.698741,0,102214
109407,Fairfield at Cornwall (for Moss St),48.416083,-123.349929,0,102215
4449,Milburn at Aloha,48.416974,-123.476511,0,102216
4450,Fifth at Weiler,48.64133,-123.400263,0,102217
4451,Canora at Northbrook,48.639996,-123.417673,0,102218
4452,Sunriver at Driftwood,48.395424,-123.718631,0,102219
4453,Canora at Norseman,48.640476,-123.41727,0,102220
4454,Fifth at Weiler,48.641658,-123.40046,0,102221
4455,Victoria International Airport,48.640386,-123.431555,0,102226
4456,Fifth at Ocean,48.644002,-123.400104,0,102227
4457,Fifth at Ocean,48.643691,-123.400468,0,102228
4458,West Saanich 9380 block,48.637149,-123.457974,0,102229
109418,East Sooke at Whale View,48.33716,-123.620475,0,102230
4459,Ocean at Epco,48.64443,-123.410575,0,102231
109420,East Sooke at Spirit Bay,48.338019,-123.606365,0,102232
4460,Ocean at Epco,48.644561,-123.410578,0,102233
4461,West Saanich at Bradley Dyne,48.638745,-123.458102,0,102234
4462,Sooke Rd at Belvista,48.383903,-123.705545,0,102235
4463,Sooke Rd at Phillips,48.383858,-123.705958,0,102236
4464,SEAPARC Recreation Ctr,48.386275,-123.708805,0,102238
4465,Fifth at Bevan,48.647387,-123.400226,0,102239
4466,Fifth at Bevan,48.647294,-123.400401,0,102240
4467,Sunriver at De Mamiel,48.393079,-123.711378,0,102241
4468,Sunriver at De Mamiel,48.392952,-123.711377,0,102242
4469,Fifth at Beacon - Sidney Town Ctr,48.648599,-123.400417,0,102243
4470,Sooke Rd at Drennan,48.381846,-123.709941,0,102246
4471,Sooke Rd at Terrott,48.381865,-123.710206,0,102247
4472,Beacon at Hwy 17,48.648822,-123.408746,0,102248
4473,Fifth at Beacon - Sidney Town Ctr,48.649312,-123.40023,0,102249
4474,Sunriver at Poplar,48.393398,-123.713656,0,102250
4475,Beacon at Stirling,48.649034,-123.408677,0,102251
109437,East Sooke at Sutiacum,48.342377,-123.596145,0,102252
4476,James White Blvd at Fifth,48.650168,-123.400599,0,102253
4477,West Saanich at Ardmore,48.643914,-123.458107,0,102254
4478,Sooke Rd at Charters,48.380766,-123.712957,0,102255
4479,West Saanich at Ardmore,48.643624,-123.457919,0,102256
4480,Galaran at Skylark,48.650908,-123.412328,0,102257
4481,Sooke Rd at Dover,48.380423,-123.713775,0,102258
4482,Fifth at Henry,48.652783,-123.400187,0,102259
4483,West Saanich 9740 block,48.646399,-123.455695,0,102260
4484,West Saanich 9730 block,48.646491,-123.455853,0,102261
4485,Henry at Resthaven,48.653156,-123.403015,0,102262
4486,Henry at Chicory,48.653293,-123.406661,0,102263
4487,Henry at Seventh,48.653291,-123.403577,0,102264
4488,Henry at Chicory,48.65316,-123.406542,0,102265
4489,Galaran at Henry,48.653555,-123.412314,0,102266
4490,McDonald Park Rd at Henry,48.653135,-123.416925,0,102267
4491,West Saanich at Willingdon,48.649547,-123.447554,0,102268
4492,Resthaven at Henry,48.653832,-123.402514,0,102269
4493,Sooke Rd at Church,48.379224,-123.717774,0,102270
4494,Church at Sooke Rd,48.379479,-123.718461,0,102271
4495,Sooke Rd at Church,48.379199,-123.717495,0,102272
4496,West Saanich at Willingdon,48.64974,-123.447511,0,102273
4497,Resthaven at Mills,48.655171,-123.402832,0,102274
4498,Church at Country,48.381928,-123.719958,0,102275
4499,Mills at Bowerbank,48.655267,-123.409866,0,102276
4500,Bowerbank at Mills,48.655737,-123.41008,0,102277
4501,Church Rd at Church St,48.384589,-123.722334,0,102278
4502,Mills at McDonald Park Rd,48.655407,-123.416561,0,102279
4503,Resthaven at Malaview,48.656734,-123.403055,0,102280
4504,Mills Rd 1920 block,48.655415,-123.420116,0,102281
4505,Church at Arranwood,48.38672,-123.723676,0,102282
4506,McDonald Park Rd at Mills,48.655887,-123.416946,0,102283
4507,Mills at Avenger Way,48.655429,-123.423247,0,102284
4508,Sooke Rd at Townsend - Sooke Town Ctr.,48.378433,-123.722445,0,102285
4509,Bowerbank at Malaview,48.656789,-123.41027,0,102286
4510,Resthaven at Amherst,48.657554,-123.402859,0,102287
4511,Bowerbank at Malaview,48.657361,-123.410069,0,102288
4512,Mills at Littlewood,48.655447,-123.430911,0,102289
4514,Resthaven at Amelia,48.658479,-123.403045,0,102291
4515,Otter Point at Ayre,48.378517,-123.724532,0,102292
4516,Otter Point at Eustace,48.378147,-123.724536,0,102293
4517,Otter Point at Grant,48.379653,-123.725201,0,102294
4518,Resthaven at Amelia,48.659024,-123.402875,0,102295
4519,Sunriver at De Mamiel,48.394342,-123.714523,0,102296
4520,Helgesen at Cedar Ridge,48.389035,-123.728228,0,102297
4521,Mills at West Saanich,48.655459,-123.444401,0,102298
4522,West Coast at Atherly,48.375349,-123.724963,0,102299
4523,McDonald Park Rd at Glamorgan,48.659395,-123.416932,0,102300
4524,Bowerbank at Calvin,48.659836,-123.410265,0,102301
4525,Bowerbank at Piercy,48.660253,-123.410035,0,102302
4526,Resthaven at Ardwell,48.662235,-123.403815,0,102303
4527,McDonald Park Rd 10280 block,48.661137,-123.416926,0,102304
4528,Bowerbank at Vallis,48.662056,-123.41028,0,102305
4529,West Saanich at Tapping,48.65882,-123.447018,0,102306
4530,Ardwell at Resthaven,48.662531,-123.404552,0,102307
4531,West Coast at Maple,48.370573,-123.72819,0,102308
4532,Ardwell at Simister,48.662528,-123.407347,0,102309
4533,Ardwell at Simister,48.662655,-123.406614,0,102310
4534,West Coast at Maple,48.370637,-123.72837,0,102311
4535,Ardwell at Devlin,48.662526,-123.409467,0,102312
4536,Helgesen at Otter Point,48.387589,-123.733288,0,102313
4537,Bowerbank at Ardwell,48.662911,-123.410101,0,102314
4538,Otter Point at Beaton,48.383019,-123.732821,0,102315
4539,Otter Point at Rhodonite,48.383229,-123.733252,0,102316
4540,Quartz at Otter Point,48.384253,-123.733726,0,102317
4541,Sunriver at Driftwood,48.395607,-123.719115,0,102318
4542,Quartz at Gatewood,48.383982,-123.734239,0,102319
4543,Otter Point at Burr,48.391261,-123.736775,0,102320
4544,Bowerbank at Colinwood,48.664963,-123.410042,0,102321
4545,Bowerbank at Colinwood,48.664918,-123.410248,0,102322
4546,Pyrite at Banner,48.37849,-123.734363,0,102323
4547,Pyrite at Rhodonite,48.38344,-123.735536,0,102324
4548,Pyrite at Rhodonite,48.383232,-123.735893,0,102325
4549,Pyrite at Banner,48.37841,-123.734624,0,102326
4550,Pyrite at Beaton,48.381545,-123.735663,0,102327
4551,Dufour at Deerlepe,48.359799,-123.729746,0,102328
4552,Pyrite at Talc,48.381076,-123.735583,0,102329
4553,Dufour at Whiffin Spit,48.357485,-123.728391,0,102330
4554,Grant at French,48.377024,-123.735221,0,102331
4555,West Coast 6950 block,48.367481,-123.731036,0,102332
4556,West Coast 6960 block,48.367028,-123.733029,0,102333
4557,Resthaven at Shoal Harbour Pier,48.666103,-123.412205,0,102334
4558,Resthaven 10460 block,48.666215,-123.412946,0,102335
4559,Resthaven at McDonald Park Rd,48.666227,-123.416515,0,102336
4560,Grant at French,48.376475,-123.736578,0,102337
4561,McDonald Park Rd at Resthaven,48.666489,-123.41697,0,102338
4562,Grant at Guardian,48.376431,-123.737227,0,102339
4564,West Saanich 10340 block,48.663132,-123.451331,0,102341
4565,West Coast at Whiffin Spit,48.365941,-123.736748,0,102342
4566,Latoria at Dunlin,48.408126,-123.488074,0,102343
4567,West Coast at Whiffin Spit,48.366071,-123.734929,0,102344
4568,Grant at Maple,48.375493,-123.740076,0,102345
4569,Whiffin Spit at Deerlepe,48.358319,-123.734304,0,102346
4570,Latoria at R. Hesjedal - Royal Bay Sch,48.407305,-123.491611,0,102347
4571,West Saanich at Totem Ln,48.664779,-123.454026,0,102348
4572,Latoria at R. Hesjedal - Royal Bay Sch,48.407688,-123.49028,0,102349
4573,Grant at Maple,48.375386,-123.740957,0,102350
4574,Whiffin Spit at Wright,48.363329,-123.737194,0,102351
4575,Whiffin Spit at Wright,48.363346,-123.737367,0,102352
4576,McDonald Park Rd at Blue Heron,48.669557,-123.417638,0,102353
4577,McDonald Park Rd 10580 block,48.669292,-123.417772,0,102354
4578,Otter Point at Pascoe,48.396712,-123.746364,0,102355
4579,Grant at Winfield,48.374442,-123.743721,0,102356
4580,McDonald Park Rd at Bayfield,48.671219,-123.421362,0,102357
4581,Grant at Winfield,48.374348,-123.744553,0,102358
4582,McDonald Park Rd at Bayfield,48.671483,-123.421684,0,102359
4583,West Coast 7120 block,48.368212,-123.743942,0,102360
4584,Grant 7120 block,48.373336,-123.747431,0,102361
4585,West Coast 7120 block,48.367572,-123.743228,0,102362
4586,West Saanich at Towner Park,48.66808,-123.457759,0,102363
4587,Grant 7120 block,48.373538,-123.747208,0,102364
4588,West Coast at Croce,48.370246,-123.747225,0,102365
4589,McDonald Park Rd at McMicken,48.674096,-123.42421,0,102366
4590,West Coast at Croce,48.370104,-123.747292,0,102367
4591,McDonald Park Rd at Marina,48.674299,-123.424055,0,102368
4592,Grant at West Coast,48.372628,-123.749901,0,102369
4593,Otter Point at Sarah,48.396846,-123.754326,0,102370
4594,West Coast at Ella,48.371949,-123.749668,0,102371
4595,Grant at West Coast,48.372668,-123.750265,0,102372
4596,Hwy 17 n/b ramp at McDonald Park Rd,48.676008,-123.426125,0,102373
4597,Hwy 17 s/b ramp at Wain Rd,48.676786,-123.427501,0,102374
4598,Downey at West Saanich,48.673549,-123.460453,0,102375
4599,Ocean at Canora,48.644506,-123.416611,0,102376
4600,Downey 830 block,48.673527,-123.464328,0,102377
4601,Downey at Derrick,48.673517,-123.470566,0,102378
4602,Ocean at Canora,48.644374,-123.416435,0,102379
4603,Downey 550 block,48.673561,-123.475989,0,102380
109564,Rocky Point 5159 Blk,48.362448,-123.567835,0,102381
4604,Downey at Madrona,48.673566,-123.480231,0,102382
4605,Wain 920 block,48.677033,-123.460835,0,102383
4606,Wain 820 block,48.677026,-123.464781,0,102384
4607,Hwy 17 s/b ramp at Lands End Rd,48.683695,-123.413432,0,102385
4608,Lands End at Hwy 17 s/b ramp,48.683944,-123.413865,0,102386
4609,Lands End at Hwy 17 s/b ramp,48.684105,-123.412477,0,102387
4610,Wain at Derrick,48.677015,-123.471082,0,102388
4611,West Saanich at Birch,48.679197,-123.457681,0,102389
109573,Rocky Point 5157 Blk,48.362755,-123.567477,0,102390
4612,Madrona at Cromar,48.675547,-123.482296,0,102391
4613,Otter Point at Young Lake,48.396095,-123.767945,0,102392
109576,Rocky Point at Malloch,48.356969,-123.579089,0,102393
109577,Rocky Point at Galloping Goose Trail,48.355518,-123.580415,0,102394
4614,Wain 550 block,48.677048,-123.475712,0,102395
4615,Wain at Deep Cove,48.677068,-123.478321,0,102396
109580,Rocky Point at Pedder Bay,48.351596,-123.582091,0,102397
109581,Rocky Point at Pedder Bay,48.351754,-123.582343,0,102398
4616,West Saanich at Clayton,48.680998,-123.457682,0,102399
4617,Lands End at Woodpecker,48.685651,-123.416719,0,102400
4618,Madrona at Wain,48.676688,-123.484773,0,102401
4619,West Saanich at Maple,48.682414,-123.457684,0,102402
109586,East Sooke at Seedtree,48.350005,-123.637175,0,102403
4620,Swartz Bay Ferry Terminal,48.688255,-123.41188,0,102404
4621,Lands End at Greenpark,48.688015,-123.420039,0,102405
109589,East Sooke at Seedtree,48.350163,-123.637478,0,102406
109590,East Sooke at Becher Bay,48.340172,-123.631431,0,102407
109591,East Sooke at Becher Bay,48.339955,-123.631559,0,102408
4622,Lands End at Elderberry,48.690212,-123.424706,0,102409
109593,East Sooke at Whale View,48.337324,-123.620653,0,102410
4623,Otter Point at Ramsden,48.394068,-123.777934,0,102411
4624,West Saanich at Tatlow,48.687246,-123.457745,0,102412
4625,Lands End at Hedgerow,48.691736,-123.427882,0,102413
109597,East Sooke at Spirit Bay,48.338171,-123.606234,0,102414
4626,Lands End at Junco,48.69446,-123.429998,0,102415
4627,UVic Exchange,48.466153,-123.30926,0,102416
4628,UVic Exchange,48.466322,-123.309034,0,102417
109601,East Sooke at Sutiacum,48.342782,-123.596168,0,102418
4629,West Saanich at Brickley,48.692183,-123.457727,0,102419
4630,UVic Exchange,48.466013,-123.308641,0,102420
4631,West Coast 7750 block,48.367138,-123.783989,0,102422
4632,Lands End at Howcrest,48.697493,-123.439346,0,102423
4633,Lands End at Cloake Hill,48.695915,-123.451872,0,102424
4634,West Saanich at Readings,48.694506,-123.457754,0,102425
4635,UVic Exchange,48.466094,-123.309073,0,102426
4636,Lands End at West Saanich,48.695656,-123.45739,0,102428
4637,Lands End at Seabreeze,48.69728,-123.447083,0,102429
109611,Rocky Point at Windover,48.364837,-123.555562,0,102430
4638,Lands End 1350 block,48.697757,-123.443537,0,102431
109613,Rocky Point at Windover,48.365081,-123.555532,0,102432
109614,Bay at Belmont,48.434337,-123.340089,0,102433
109615,Tyee at Wilson,48.430867,-123.378324,0,102434
4639,Kemp Lake at Milligan,48.381733,-123.790755,0,102435
116702,Fernwood at Balmoral,48.427409,-123.345434,0,102436
4640,Kemp Lake 2450 block,48.376246,-123.791918,0,102438
4641,Kemp Lake 2320 block,48.371474,-123.794637,0,102439
4642,West Coast at Kemp Lake,48.366073,-123.793315,0,102440
4643,Kemp Lake 2230 block,48.367731,-123.795435,0,102441
4644,Phipps at Langford Pkwy,48.442823,-123.504323,0,102442
4645,Langford Pkwy at Jacklin,48.442786,-123.509628,0,102443
119079,Tillicum Centre - Upper Level,48.453879,-123.394639,0,102444
4646,Langford Pkwy at Phipps,48.44201,-123.503961,0,102445
121447,Hastings at Santa Anita,48.479157,-123.415989,0,102446
4647,William Head Institution,48.339518,-123.541834,0,102447
121449,Gillespie 1424 Block,48.376974,-123.629601,0,102459
121450,Legislature Terminal (Belleville St),48.420598,-123.368099,0,102467
121451,Hwy 17 at Mt Newton X,48.593957,-123.398507,0,102469
121452,Hwy 17 at Mt Newton X,48.593911,-123.398102,0,102474
123816,Lochside at Hackett,48.596938,-123.39475,0,102477
147620,Royal Oak Exch - Commonwealth Place,48.498082,-123.388983,0,102482
147621,Royal Oak Exch - Commonwealth Place,48.498492,-123.388696,0,102489
147622,Royal Oak Exch - Commonwealth Place,48.499032,-123.388833,0,102490
147623,Royal Oak Exch - Commonwealth Place,48.499234,-123.388727,0,102495
147624,Royal Oak Exch - Commonwealth Place,48.498934,-123.387495,0,102510
147625,Royal Oak Exch - Commonwealth Place,48.498653,-123.388543,0,102511
130952,Veterans Memorial Pkwy at Allandale,48.427625,-123.501802,0,102512
130953,Burnside Rd W at Watkiss Way,48.464761,-123.44632,0,102513
145221,Saanichton Exchange,48.594141,-123.416399,0,102524
145222,Saanichton Exchange,48.594236,-123.416325,0,102527
142737,Goldstream at Lakeshore Pl,48.454113,-123.531753,0,102530
145224,Admirals at Craigflower,48.450123,-123.42542,0,102537
145225,Swartz Bay Ferry Terminal,48.687861,-123.412281,0,102538
145226,Metchosin at Latoria,48.40734,-123.486251,0,102544
145227,Metchosin at Latoria,48.408188,-123.485709,0,102546
145228,Sooke at Gillespie,48.396155,-123.62596,0,102549
145229,Sooke at Gillespie,48.396058,-123.625658,0,102551
145230,Gillepsie at Sooke,48.395857,-123.626957,0,102552
145231,Admirals at Lekwammen,48.446124,-123.426818,0,102566
145232,Sooke at Glinz Lake,48.394408,-123.635586,0,102568
147640,Gorge at Colquitz,48.451716,-123.416449,0,102570
147641,Gorge at Gorge View,48.449097,-123.40511,0,102571
147643,Fort at Joan Cres - Castle & Art Gallery,48.42369,-123.344991,0,102573
159494,McCallum at Gateway,48.459273,-123.50196,0,102574
159495,McCallum at Affirmed,48.457773,-123.505297,0,102575
159496,McCallum at Affirmed,48.458043,-123.5054,0,102577
159497,McCallum at Florence Lk,48.454481,-123.507579,0,102579
159498,McCallum at Florence Lk,48.454295,-123.507512,0,102580
159499,Bear Mountain at Flint,48.459178,-123.516966,0,102581
159500,Bear Mountain at Flint,48.459363,-123.517439,0,102582
159501,Bear Mountain at Sandstone Ln,48.45874,-123.5235,0,102583
159502,Bear Mountain at Marble Pl,48.458935,-123.524659,0,102584
159503,Bear Mountain 2100 Blk,48.462543,-123.533604,0,102585
159504,Bear Mountain 2100 Blk,48.460315,-123.530383,0,102586
159505,Bear Mountain at Pinehurst,48.464758,-123.535988,0,102587
159506,Bear Mountain at Pinehurst,48.464715,-123.536324,0,102588
159507,Bear Mountain at Riviera,48.468557,-123.53776,0,102590
159508,Bear Mountain at Riviera,48.468587,-123.538076,0,102593
159509,Bear Mountain at Pebble,48.473803,-123.536494,0,102595
159510,Bear Mountain at Pebble,48.473775,-123.537005,0,102597
159511,Bear Mountain Vlg Ctr,48.475778,-123.531819,0,102598
159512,Latoria at Vets Memorial,48.408307,-123.508475,0,102601
4648,Bay at Wilson - Westside Village,48.432438,-123.382703,0,103724
4649,Bay at Douglas / Westbourne,48.435571,-123.364008,0,103726
4650,Bay at Dowler,48.435418,-123.361443,0,103727
4651,Bay at Dowler,48.435566,-123.36145,0,103728
4652,Bay at Quadra,48.435333,-123.35749,0,103729
4653,Bay at Fifth,48.435172,-123.356775,0,103730
4654,Bay at Cedar Hill,48.434765,-123.348086,0,103733
4655,Bay at Cedar Hill,48.434592,-123.347344,0,103734
4656,Bay at Roseberry,48.434393,-123.343872,0,103735
4657,Bay at Roseberry,48.434507,-123.344041,0,103736
4658,Bay at Victor,48.434098,-123.337872,0,103738
4659,Bay at Shakespeare,48.434091,-123.335426,0,103739
4660,Bay at Howard,48.433924,-123.334653,0,103740
4661,Royal Jubilee Hospital,48.433681,-123.32788,0,103741
4663,Carlow at Goldstream,48.449223,-123.513112,0,104081
4664,Leigh at Goldstream,48.450018,-123.518237,0,104082
4665,Leigh at Hwy 1 s/b ramp,48.454139,-123.519126,0,104083
4666,Leigh at Hwy 1 s/b ramp,48.452859,-123.518903,0,104084
4667,Hwy 1 n/b ramp at Leigh,48.455559,-123.520219,0,104085
4668,McCallum at Shell Gas Station,48.453222,-123.511323,0,104086
4669,Wishart at Allendale,48.424685,-123.491654,0,104087
4670,Wishart at Tipton,48.422055,-123.493176,0,104088
4671,Wishart at Stornaway,48.419,-123.49529,0,104089
4672,Wishart at Rockwood,48.415528,-123.495432,0,104090
4673,Wishart 3480 block,48.411812,-123.49877,0,104091
4674,Wishart at Bunker,48.408854,-123.500439,0,104092
4675,Latoria at Bezanton,48.407185,-123.504271,0,104093
4676,Desmond at Latoria,48.411549,-123.516779,0,104094
4677,Desmond at Wendy,48.413368,-123.514989,0,104095
4678,Sunheights at Columbus,48.417364,-123.515525,0,104096
4679,Sunheights at Batting,48.418922,-123.514498,0,104097
4680,Sunheights at Blue Sky,48.420025,-123.512114,0,104098
4681,Fulton at Karger,48.42124,-123.50852,0,104099
4682,Bexhill at Bexhill Place,48.4237,-123.510738,0,104100
4683,Cuaulta at Zapata,48.426823,-123.511207,0,104101
4684,Walfred 900 block,48.427564,-123.514029,0,104102
4685,Jacklin at Walfred,48.429928,-123.517672,0,104103
4686,Jacklin 3227 block,48.432939,-123.515738,0,104104
4687,McKenzie at Vikes Way,48.468825,-123.312241,0,104105
4688,McCallum at Savory,48.455498,-123.515405,0,104106
4689,McCallum at Savory,48.455444,-123.5156,0,104107
4690,Royal Roads University,48.437476,-123.475542,0,104108
4691,Cuaulta at Zapata,48.425576,-123.50956,0,104109
4692,Admirals at Cowper,48.456296,-123.413818,0,104110
4693,Fairfield at Blanshard,48.421748,-123.364135,0,104111
4694,Millstream at Treanor,48.463847,-123.499707,0,104112
