stop_id,stop_name,stop_lat,stop_lon,wheelchair_boarding,stop_code
102456,Village Gate,50.11635,-122.95653,0,102456
102462,Library and Museum,50.11766,-122.958,0,102462
102466,Marketplace,50.11906,-122.9583,0,102466
102716,Gondola Transit Exchange,50.11323,-122.9522,0,102716
102454,Upper Village,50.11613,-122.94882,0,102454
102460,Chateau Blvd,50.11734,-122.94801,0,102460
102465,S.L.C.C. at Lorimer,50.11848,-122.94626,0,102465
102480,Four Seasons,50.11996,-122.94183,0,102480
102492,Villas Snowberry,50.12039,-122.93941,0,102492
102499,Blackcomb Greens,50.1206,-122.93821,0,102499
102508,Lost Lake Rd,50.12171,-122.93613,0,102508
102516,TREELINE,50.12217,-122.93413,0,102516
102522,Blackcomb Way Turnaround,50.12283,-122.93269,0,102522
102515,Lost Lake Lodge,50.1222,-122.93442,0,102515
102505,The Woods,50.12176,-122.93635,0,102505
102491,Fox Glove Villas,50.11989,-122.93883,0,102491
102485,Snowbird,50.11828,-122.94005,0,102485
102478,Painted Cliff at Spearhead,50.11709,-122.94077,0,102478
102476,Painted Cliff Rd Turnaround,50.11416,-122.94052,0,102476
102471,The Marquise,50.11671,-122.94229,0,102471
102473,Wildwood Lodge,50.118,-122.94277,0,102473
102484,Wintergeen Villas,50.11913,-122.94118,0,102484
102481,Chateau Golf Club,50.12011,-122.9428,0,102481
102468,S.L.C.C. at Lorimer,50.11889,-122.94585,0,102468
102463,Chateau Blvd,50.11798,-122.94739,0,102463
102453,Upper Village,50.11624,-122.94893,0,102453
102717,Gondola Transit Exchange,50.11314,-122.95191,0,102717
102479,Lorimer Rd,50.12098,-122.95859,0,102479
102496,Saint Andrews Way,50.12421,-122.96141,0,102496
102520,Myrtle Philip School,50.12732,-122.96456,0,102520
102526,Balsam Way,50.12635,-122.96758,0,102526
102528,Cedar Grove Ln,50.12583,-122.96897,0,102528
102525,Tapley Pl,50.12485,-122.97001,0,102525
102529,Cabapple Turnaround,50.1231,-122.97296,0,102529
102521,Beaver Ln,50.12325,-122.97133,0,102521
102497,Falcon Cres,50.11849,-122.96918,0,102497
102494,Ptarmigan Pl,50.1127,-122.97038,0,102494
102502,Saint Anton Way,50.11062,-122.97126,0,102502
102493,Brio Entrance,50.10948,-122.96816,0,102493
102483,Panorama Ridge,50.10995,-122.96476,0,102483
102455,Village Gate,50.11615,-122.95648,0,102455
102718,Gondola Transit Exchange,50.11321,-122.95164,0,102718
102450,Glacier Dr at Blackcomb Way,50.11432,-122.94873,0,102450
102452,Glacier Dr at Cedar Hollow,50.11187,-122.94818,0,102452
102457,Glacier Ln at Glacier Dr,50.11098,-122.94733,0,102457
102464,Glacier Staff Housing,50.10912,-122.948,0,102464
102458,Glacier Ln at Glacier Dr,50.11108,-122.94718,0,102458
102451,Glacier Dr at Cedar Hollow,50.11245,-122.94769,0,102451
102449,Glacier Dr at Blackcomb Way,50.11434,-122.94916,0,102449
102690,Bayly Park,50.07867,-123.04364,0,102690
102550,Cloudburst Dr at 1300 Blk,50.07712,-123.04273,0,102550
102548,Mount Fee Rd,50.07716,-123.03928,0,102548
102685,Whitewater Dr,50.0791,-123.03924,0,102685
102553,Legacy Way,50.0806,-123.04025,0,102553
102691,Cheakamus Lk Rd at Hwy 99,50.08619,-123.0367,0,102691
102673,Hwy 99 at Spring Creek Dr,50.08736,-123.02509,0,102673
102639,Alta Lake Rd,50.09051,-123.00546,0,102639
102632,Bayshore Dr,50.08991,-122.99992,0,102632
130003,Whistler Creekside - Hwy 99,50.0958,-122.99084,0,130003
102543,Hwy 99 at Nordic Dr,50.10344,-122.98093,0,102543
102523,Alta Vista,50.10736,-122.97529,0,102523
130001,Whistler Golf Club,50.1138,-122.95912,0,130001
102542,Hwy 99 at Spruce Grove Wy,50.13263,-122.95339,0,102542
102594,Nicklaus North Blvd,50.14337,-122.95762,0,102594
102620,Hwy 99 at Alpine Way,50.14792,-122.96096,0,102620
102703,Rainbow Estates,50.15664,-122.95596,0,102703
102629,Green Lake Lookout,50.15158,-122.94374,0,102629
102659,Summer Ln,50.15872,-122.92684,0,102659
102660,Emerald at Pinetree,50.15907,-122.92815,0,102660
102656,Emerald Dr at 9100 Blk,50.15749,-122.9298,0,102656
102653,Emerald at Autumn,50.15606,-122.93123,0,102653
102619,Hwy 99 at Alpine Way,50.14815,-122.96128,0,102619
102589,Nicklaus North Blvd,50.14295,-122.95756,0,102589
102536,Nesters Rd at Recycling Ctr,50.1311,-122.95408,0,102536
102514,Nesters Rd at Nesters Mall,50.1283,-122.95483,0,102514
130007,Village at Northlands Blvd,50.11633,-122.958,0,130007
130000,Whistler Golf Club,50.11374,-122.95927,0,130000
102486,Panorama Ridge,50.11003,-122.96483,0,102486
102509,Blueberry Dr,50.10981,-122.97183,0,102509
102533,Hillcrest Dr at Alta Vista,50.10703,-122.97604,0,102533
130002,Whistler Creekside - Hwy 99,50.09425,-122.99357,0,130002
102628,Bayshore Dr,50.09046,-122.99782,0,102628
102645,Alta Lake Rd,50.09041,-123.00779,0,102645
102683,Cheakamus Lk Rd at Hwy 99,50.08566,-123.03698,0,102683
102686,HI Whistler,50.07982,-123.04142,0,102686
130005,Millar Creek Rd at 1000 Blk,50.08772,-123.04053,0,130005
130004,Millar Creek Rd at 1000 Blk,50.08761,-123.04047,0,130004
130006,Alpha Lake Rd,50.08797,-123.03903,0,130006
102681,Millar Creek Rd,50.08838,-123.03877,0,102681
102680,Alpha Lake Rd at 1200 Blk,50.08912,-123.03666,0,102680
102677,Industrial Park,50.08954,-123.03319,0,102677
102676,Function Jct Turnaround,50.09013,-123.03139,0,102676
102678,Industrial Park,50.08956,-123.03333,0,102678
102679,Alpha Lake Rd at 1200 Blk,50.08922,-123.03676,0,102679
102682,Millar Creek Rd,50.08835,-123.0389,0,102682
102605,Sarajevo Dr,50.09424,-122.99229,0,102605
102599,Whistler Creekside,50.09439,-122.99006,0,102599
102591,London Ln,50.09597,-122.98939,0,102591
102576,Whistler Rd at Hwy 99,50.09906,-122.98905,0,102576
102567,Eva Lake Rd,50.10021,-122.98658,0,102567
102555,Garibaldi Way,50.10304,-122.98386,0,102555
102545,Nordic Dr at Nordic Pl,50.10282,-122.98177,0,102545
102714,Gondola Transit Exchange,50.11368,-122.95247,0,102714
102713,Gondola Transit Exchange,50.11391,-122.95257,0,102713
102547,Nordic Dr at Nordic Pl,50.103,-122.98187,0,102547
102554,Garibaldi Way,50.10314,-122.98399,0,102554
102569,Eva Lake Rd,50.10037,-122.98662,0,102569
102578,Whistler Rd at Hwy 99,50.09916,-122.98941,0,102578
102592,London Ln,50.09603,-122.98955,0,102592
102596,Whistler Creekside,50.09445,-122.99016,0,102596
102603,Sarajevo Dr,50.09432,-122.99187,0,102603
102672,Bear Ridge,50.08625,-123.02374,0,102672
102667,Spring Creek School,50.08571,-123.02076,0,102667
102664,Tynebridge Ln,50.08637,-123.01882,0,102664
102661,Khyber Ln,50.08677,-123.01425,0,102661
102662,Khyber Ln,50.08683,-123.01442,0,102662
102665,Tynebridge Ln,50.08646,-123.01941,0,102665
102668,Spring Creek School,50.0857,-123.02106,0,102668
102671,Bear Ridge,50.08652,-123.02389,0,102671
102622,Alpine Wy at Rainbow Dr,50.14815,-122.96328,0,102622
102610,Rainbow Dr at Matterhorn,50.14596,-122.96531,0,102610
102604,Matterhorn at Drifter,50.14399,-122.96762,0,102604
102607,Drifter Wy at Apline Wy,50.14457,-122.9697,0,102607
102621,Wedgeview Pl,50.14647,-122.97059,0,102621
102627,Driftwood Cl,50.14883,-122.96841,0,102627
102631,Mountain View Dr,50.15133,-122.9662,0,102631
102636,Parkwood Dr,50.15333,-122.96377,0,102636
102634,Parkwood at Meadow,50.15216,-122.96278,0,102634
102600,Meadow Park Sports Ctr,50.14444,-122.96024,0,102600
102504,7079 Nesters Rd,50.12582,-122.95752,0,102504
102498,Saint Andrews Way,50.12405,-122.96146,0,102498
102503,7076 Nesters Rd,50.12578,-122.95739,0,102503
102517,Nesters Rd at Nesters Mall,50.12835,-122.95461,0,102517
102535,Nesters Rd at Recycling Ctr,50.13102,-122.95398,0,102535
930001,Whistler Transit Centre,50.13382,-122.95618,0,930001
102715,Gondola Transit Exchange,50.11349,-122.95237,0,102715
102540,Mons Rd,50.13206,-122.95242,0,102540
102534,Spruce Grove Park,50.13102,-122.95012,0,102534
102518,Spruce Grove Way,50.12835,-122.952,0,102518
102506,Fitzsimmons at N Greene,50.12665,-122.95172,0,102506
102500,Blackcomb at N Greene,50.12562,-122.95456,0,102500
102487,Settebello Dr,50.12323,-122.95452,0,102487
102475,Granite Court,50.12104,-122.95428,0,102475
102470,Marketplace - Health Ctr,50.1203,-122.95623,0,102470
102472,Blackcomb Wy at Granite Ct,50.12091,-122.95418,0,102472
102488,Settebello Dr,50.12359,-122.95443,0,102488
102501,Blackcomb at N Greene,50.12623,-122.95421,0,102501
102507,Fitzsimmons at N Greene,50.12673,-122.95159,0,102507
102519,Spruce Grove Way,50.12841,-122.95189,0,102519
102539,Spruce Grove Park,50.13145,-122.95,0,102539
102541,Mons Rd,50.13214,-122.95249,0,102541
102461,Olympic Plaza,50.11844,-122.95402,0,102461
